{
  "_provenance": {
    "name": "AreaCity-JsSpider-StatsGov",
    "version": "2025.251231.260403",
    "date": "2026-04-03",
    "license": "MIT",
    "copyright": "Copyright (c) 2019 xiangyuecn",
    "github": "https://github.com/xiangyuecn/AreaCity-JsSpider-StatsGov",
    "data_sources": [
      "国家地名信息库 (Ministry of Civil Affairs, 2025-12-31)",
      "腾讯地图行政区划 (Tencent Maps, 2025-11-19)",
      "高德地图行政区划 (AutoNavi Maps)"
    ],
    "lng_lat_sources": [
      "高德地图 (AutoNavi) — region.json",
      "boyan01/ChinaRegionDistrict (https://github.com/boyan01/ChinaRegionDistrict)"
    ],
    "lng_lat_note": "经纬度本质为地理事实数据（来自公开地图服务），不属于可版权保护对象。本项目未使用 boyan01 的代码，仅使用了相同来源的公开地图坐标。"
  },
  "_extra_note": "匈牙利德布勒森是用户特殊需求（前任所在地）；其他主要国际城市便于海外用户。坐标来自 Wikipedia/公开地图数据，属地理事实数据。",
  "cities": [
    {
      "name": "北京",
      "full_name": "北京市",
      "pinyin": "bei jing",
      "pinyin_prefix": "b",
      "code": "110000",
      "deep": 0,
      "lng": 116.407394,
      "lat": 39.904211,
      "aliases": [
        "beijing",
        "bj"
      ]
    },
    {
      "name": "北京",
      "full_name": "北京市",
      "pinyin": "bei jing",
      "pinyin_prefix": "b",
      "code": "110100",
      "deep": 1,
      "lng": 116.407394,
      "lat": 39.904211,
      "aliases": [
        "beijing",
        "bj"
      ]
    },
    {
      "name": "东城",
      "full_name": "东城区",
      "pinyin": "dong cheng",
      "pinyin_prefix": "d",
      "code": "110101",
      "deep": 2,
      "lng": 116.41649,
      "lat": 39.928341
    },
    {
      "name": "西城",
      "full_name": "西城区",
      "pinyin": "xi cheng",
      "pinyin_prefix": "x",
      "code": "110102",
      "deep": 2,
      "lng": 116.365873,
      "lat": 39.912235
    },
    {
      "name": "朝阳",
      "full_name": "朝阳区",
      "pinyin": "chao yang",
      "pinyin_prefix": "c",
      "code": "110105",
      "deep": 2,
      "lng": 116.443205,
      "lat": 39.921506
    },
    {
      "name": "丰台",
      "full_name": "丰台区",
      "pinyin": "feng tai",
      "pinyin_prefix": "f",
      "code": "110106",
      "deep": 2,
      "lng": 116.287039,
      "lat": 39.858421
    },
    {
      "name": "石景山",
      "full_name": "石景山区",
      "pinyin": "shi jing shan",
      "pinyin_prefix": "s",
      "code": "110107",
      "deep": 2,
      "lng": 116.222933,
      "lat": 39.906611
    },
    {
      "name": "海淀",
      "full_name": "海淀区",
      "pinyin": "hai dian",
      "pinyin_prefix": "h",
      "code": "110108",
      "deep": 2,
      "lng": 116.298262,
      "lat": 39.95993
    },
    {
      "name": "门头沟",
      "full_name": "门头沟区",
      "pinyin": "men tou gou",
      "pinyin_prefix": "m",
      "code": "110109",
      "deep": 2,
      "lng": 116.101719,
      "lat": 39.940338
    },
    {
      "name": "房山",
      "full_name": "房山区",
      "pinyin": "fang shan",
      "pinyin_prefix": "f",
      "code": "110111",
      "deep": 2,
      "lng": 116.143486,
      "lat": 39.748823
    },
    {
      "name": "通州",
      "full_name": "通州区",
      "pinyin": "tong zhou",
      "pinyin_prefix": "t",
      "code": "110112",
      "deep": 2,
      "lng": 116.656434,
      "lat": 39.909946
    },
    {
      "name": "顺义",
      "full_name": "顺义区",
      "pinyin": "shun yi",
      "pinyin_prefix": "s",
      "code": "110113",
      "deep": 2,
      "lng": 116.654642,
      "lat": 40.130211
    },
    {
      "name": "昌平",
      "full_name": "昌平区",
      "pinyin": "chang ping",
      "pinyin_prefix": "c",
      "code": "110114",
      "deep": 2,
      "lng": 116.231254,
      "lat": 40.220804
    },
    {
      "name": "大兴",
      "full_name": "大兴区",
      "pinyin": "da xing",
      "pinyin_prefix": "d",
      "code": "110115",
      "deep": 2,
      "lng": 116.341483,
      "lat": 39.726917
    },
    {
      "name": "怀柔",
      "full_name": "怀柔区",
      "pinyin": "huai rou",
      "pinyin_prefix": "h",
      "code": "110116",
      "deep": 2,
      "lng": 116.631931,
      "lat": 40.316053
    },
    {
      "name": "平谷",
      "full_name": "平谷区",
      "pinyin": "ping gu",
      "pinyin_prefix": "p",
      "code": "110117",
      "deep": 2,
      "lng": 117.121351,
      "lat": 40.140595
    },
    {
      "name": "密云",
      "full_name": "密云区",
      "pinyin": "mi yun",
      "pinyin_prefix": "m",
      "code": "110118",
      "deep": 2,
      "lng": 116.843047,
      "lat": 40.376894
    },
    {
      "name": "延庆",
      "full_name": "延庆区",
      "pinyin": "yan qing",
      "pinyin_prefix": "y",
      "code": "110119",
      "deep": 2,
      "lng": 115.974981,
      "lat": 40.456591
    },
    {
      "name": "天津",
      "full_name": "天津市",
      "pinyin": "tian jin",
      "pinyin_prefix": "t",
      "code": "120000",
      "deep": 0,
      "lng": 117.200983,
      "lat": 39.084158,
      "aliases": [
        "tianjin"
      ]
    },
    {
      "name": "天津",
      "full_name": "天津市",
      "pinyin": "tian jin",
      "pinyin_prefix": "t",
      "code": "120100",
      "deep": 1,
      "lng": 117.200983,
      "lat": 39.084158,
      "aliases": [
        "tianjin"
      ]
    },
    {
      "name": "和平",
      "full_name": "和平区",
      "pinyin": "he ping",
      "pinyin_prefix": "h",
      "code": "120101",
      "deep": 2,
      "lng": 117.214699,
      "lat": 39.117196
    },
    {
      "name": "河东",
      "full_name": "河东区",
      "pinyin": "he dong",
      "pinyin_prefix": "h",
      "code": "120102",
      "deep": 2,
      "lng": 117.251584,
      "lat": 39.128294
    },
    {
      "name": "河西",
      "full_name": "河西区",
      "pinyin": "he xi",
      "pinyin_prefix": "h",
      "code": "120103",
      "deep": 2,
      "lng": 117.223371,
      "lat": 39.109563
    },
    {
      "name": "南开",
      "full_name": "南开区",
      "pinyin": "nan kai",
      "pinyin_prefix": "n",
      "code": "120104",
      "deep": 2,
      "lng": 117.150738,
      "lat": 39.138205
    },
    {
      "name": "河北",
      "full_name": "河北区",
      "pinyin": "he bei",
      "pinyin_prefix": "h",
      "code": "120105",
      "deep": 2,
      "lng": 117.196648,
      "lat": 39.147869
    },
    {
      "name": "红桥",
      "full_name": "红桥区",
      "pinyin": "hong qiao",
      "pinyin_prefix": "h",
      "code": "120106",
      "deep": 2,
      "lng": 117.151533,
      "lat": 39.167345
    },
    {
      "name": "东丽",
      "full_name": "东丽区",
      "pinyin": "dong li",
      "pinyin_prefix": "d",
      "code": "120110",
      "deep": 2,
      "lng": 117.31362,
      "lat": 39.086802
    },
    {
      "name": "西青",
      "full_name": "西青区",
      "pinyin": "xi qing",
      "pinyin_prefix": "x",
      "code": "120111",
      "deep": 2,
      "lng": 117.008826,
      "lat": 39.141152
    },
    {
      "name": "津南",
      "full_name": "津南区",
      "pinyin": "jin nan",
      "pinyin_prefix": "j",
      "code": "120112",
      "deep": 2,
      "lng": 117.35726,
      "lat": 38.937928
    },
    {
      "name": "北辰",
      "full_name": "北辰区",
      "pinyin": "bei chen",
      "pinyin_prefix": "b",
      "code": "120113",
      "deep": 2,
      "lng": 117.135488,
      "lat": 39.224791
    },
    {
      "name": "武清",
      "full_name": "武清区",
      "pinyin": "wu qing",
      "pinyin_prefix": "w",
      "code": "120114",
      "deep": 2,
      "lng": 117.044387,
      "lat": 39.384119
    },
    {
      "name": "宝坻",
      "full_name": "宝坻区",
      "pinyin": "bao di",
      "pinyin_prefix": "b",
      "code": "120115",
      "deep": 2,
      "lng": 117.309874,
      "lat": 39.717564
    },
    {
      "name": "滨海新区",
      "full_name": "滨海新区",
      "pinyin": "bin hai xin qu",
      "pinyin_prefix": "b",
      "code": "120116",
      "deep": 2,
      "lng": 117.698407,
      "lat": 39.01727
    },
    {
      "name": "宁河",
      "full_name": "宁河区",
      "pinyin": "ning he",
      "pinyin_prefix": "n",
      "code": "120117",
      "deep": 2,
      "lng": 117.826724,
      "lat": 39.330087
    },
    {
      "name": "静海",
      "full_name": "静海区",
      "pinyin": "jing hai",
      "pinyin_prefix": "j",
      "code": "120118",
      "deep": 2,
      "lng": 116.974232,
      "lat": 38.94745
    },
    {
      "name": "蓟州",
      "full_name": "蓟州区",
      "pinyin": "ji zhou",
      "pinyin_prefix": "j",
      "code": "120119",
      "deep": 2,
      "lng": 117.408296,
      "lat": 40.045851
    },
    {
      "name": "河北",
      "full_name": "河北省",
      "pinyin": "he bei",
      "pinyin_prefix": "h",
      "code": "130000",
      "deep": 0,
      "lng": 114.530235,
      "lat": 38.037433
    },
    {
      "name": "石家庄",
      "full_name": "石家庄市",
      "pinyin": "shi jia zhuang",
      "pinyin_prefix": "s",
      "code": "130100",
      "deep": 1,
      "lng": 114.514793,
      "lat": 38.042228
    },
    {
      "name": "长安",
      "full_name": "长安区",
      "pinyin": "chang an",
      "pinyin_prefix": "c",
      "code": "130102",
      "deep": 2,
      "lng": 114.539395,
      "lat": 38.036347
    },
    {
      "name": "桥西",
      "full_name": "桥西区",
      "pinyin": "qiao xi",
      "pinyin_prefix": "q",
      "code": "130104",
      "deep": 2,
      "lng": 114.461088,
      "lat": 38.004193
    },
    {
      "name": "新华",
      "full_name": "新华区",
      "pinyin": "xin hua",
      "pinyin_prefix": "x",
      "code": "130105",
      "deep": 2,
      "lng": 114.463377,
      "lat": 38.05095
    },
    {
      "name": "井陉矿区",
      "full_name": "井陉矿区",
      "pinyin": "jing xing kuang qu",
      "pinyin_prefix": "j",
      "code": "130107",
      "deep": 2,
      "lng": 114.062062,
      "lat": 38.065151
    },
    {
      "name": "裕华",
      "full_name": "裕华区",
      "pinyin": "yu hua",
      "pinyin_prefix": "y",
      "code": "130108",
      "deep": 2,
      "lng": 114.531202,
      "lat": 38.00643
    },
    {
      "name": "藁城",
      "full_name": "藁城区",
      "pinyin": "gao cheng",
      "pinyin_prefix": "g",
      "code": "130109",
      "deep": 2,
      "lng": 114.847023,
      "lat": 38.021453
    },
    {
      "name": "鹿泉",
      "full_name": "鹿泉区",
      "pinyin": "lu quan",
      "pinyin_prefix": "l",
      "code": "130110",
      "deep": 2,
      "lng": 114.313654,
      "lat": 38.085953
    },
    {
      "name": "栾城",
      "full_name": "栾城区",
      "pinyin": "luan cheng",
      "pinyin_prefix": "l",
      "code": "130111",
      "deep": 2,
      "lng": 114.648318,
      "lat": 37.900199
    },
    {
      "name": "井陉",
      "full_name": "井陉县",
      "pinyin": "jing xing",
      "pinyin_prefix": "j",
      "code": "130121",
      "deep": 2,
      "lng": 114.145242,
      "lat": 38.032118
    },
    {
      "name": "正定",
      "full_name": "正定县",
      "pinyin": "zheng ding",
      "pinyin_prefix": "z",
      "code": "130123",
      "deep": 2,
      "lng": 114.570941,
      "lat": 38.146444
    },
    {
      "name": "行唐",
      "full_name": "行唐县",
      "pinyin": "xing tang",
      "pinyin_prefix": "x",
      "code": "130125",
      "deep": 2,
      "lng": 114.552714,
      "lat": 38.438377
    },
    {
      "name": "灵寿",
      "full_name": "灵寿县",
      "pinyin": "ling shou",
      "pinyin_prefix": "l",
      "code": "130126",
      "deep": 2,
      "lng": 114.382614,
      "lat": 38.308665
    },
    {
      "name": "高邑",
      "full_name": "高邑县",
      "pinyin": "gao yi",
      "pinyin_prefix": "g",
      "code": "130127",
      "deep": 2,
      "lng": 114.611121,
      "lat": 37.615534
    },
    {
      "name": "深泽",
      "full_name": "深泽县",
      "pinyin": "shen ze",
      "pinyin_prefix": "s",
      "code": "130128",
      "deep": 2,
      "lng": 115.20092,
      "lat": 38.184033
    },
    {
      "name": "赞皇",
      "full_name": "赞皇县",
      "pinyin": "zan huang",
      "pinyin_prefix": "z",
      "code": "130129",
      "deep": 2,
      "lng": 114.386111,
      "lat": 37.665663
    },
    {
      "name": "无极",
      "full_name": "无极县",
      "pinyin": "wu ji",
      "pinyin_prefix": "w",
      "code": "130130",
      "deep": 2,
      "lng": 114.97634,
      "lat": 38.179192
    },
    {
      "name": "平山",
      "full_name": "平山县",
      "pinyin": "ping shan",
      "pinyin_prefix": "p",
      "code": "130131",
      "deep": 2,
      "lng": 114.195918,
      "lat": 38.247888
    },
    {
      "name": "元氏",
      "full_name": "元氏县",
      "pinyin": "yuan shi",
      "pinyin_prefix": "y",
      "code": "130132",
      "deep": 2,
      "lng": 114.525409,
      "lat": 37.766513
    },
    {
      "name": "赵县",
      "full_name": "赵县",
      "pinyin": "zhao xian",
      "pinyin_prefix": "z",
      "code": "130133",
      "deep": 2,
      "lng": 114.776297,
      "lat": 37.756578
    },
    {
      "name": "辛集",
      "full_name": "辛集市",
      "pinyin": "xin ji",
      "pinyin_prefix": "x",
      "code": "130181",
      "deep": 2,
      "lng": 115.217658,
      "lat": 37.943121
    },
    {
      "name": "晋州",
      "full_name": "晋州市",
      "pinyin": "jin zhou",
      "pinyin_prefix": "j",
      "code": "130183",
      "deep": 2,
      "lng": 115.044213,
      "lat": 38.033671
    },
    {
      "name": "新乐",
      "full_name": "新乐市",
      "pinyin": "xin le",
      "pinyin_prefix": "x",
      "code": "130184",
      "deep": 2,
      "lng": 114.683776,
      "lat": 38.343319
    },
    {
      "name": "唐山",
      "full_name": "唐山市",
      "pinyin": "tang shan",
      "pinyin_prefix": "t",
      "code": "130200",
      "deep": 1,
      "lng": 118.180193,
      "lat": 39.630867
    },
    {
      "name": "路南",
      "full_name": "路南区",
      "pinyin": "lu nan",
      "pinyin_prefix": "l",
      "code": "130202",
      "deep": 2,
      "lng": 118.154354,
      "lat": 39.625058
    },
    {
      "name": "路北",
      "full_name": "路北区",
      "pinyin": "lu bei",
      "pinyin_prefix": "l",
      "code": "130203",
      "deep": 2,
      "lng": 118.200692,
      "lat": 39.624437
    },
    {
      "name": "古冶",
      "full_name": "古冶区",
      "pinyin": "gu ye",
      "pinyin_prefix": "g",
      "code": "130204",
      "deep": 2,
      "lng": 118.447635,
      "lat": 39.733578
    },
    {
      "name": "开平",
      "full_name": "开平区",
      "pinyin": "kai ping",
      "pinyin_prefix": "k",
      "code": "130205",
      "deep": 2,
      "lng": 118.261841,
      "lat": 39.671001
    },
    {
      "name": "丰南",
      "full_name": "丰南区",
      "pinyin": "feng nan",
      "pinyin_prefix": "f",
      "code": "130207",
      "deep": 2,
      "lng": 118.085169,
      "lat": 39.576031
    },
    {
      "name": "丰润",
      "full_name": "丰润区",
      "pinyin": "feng run",
      "pinyin_prefix": "f",
      "code": "130208",
      "deep": 2,
      "lng": 118.162215,
      "lat": 39.832582
    },
    {
      "name": "曹妃甸",
      "full_name": "曹妃甸区",
      "pinyin": "cao fei dian",
      "pinyin_prefix": "c",
      "code": "130209",
      "deep": 2,
      "lng": 118.460379,
      "lat": 39.27307
    },
    {
      "name": "滦南",
      "full_name": "滦南县",
      "pinyin": "luan nan",
      "pinyin_prefix": "l",
      "code": "130224",
      "deep": 2,
      "lng": 118.682379,
      "lat": 39.518996
    },
    {
      "name": "乐亭",
      "full_name": "乐亭县",
      "pinyin": "lao ting",
      "pinyin_prefix": "l",
      "code": "130225",
      "deep": 2,
      "lng": 118.912571,
      "lat": 39.425608
    },
    {
      "name": "迁西",
      "full_name": "迁西县",
      "pinyin": "qian xi",
      "pinyin_prefix": "q",
      "code": "130227",
      "deep": 2,
      "lng": 118.314715,
      "lat": 40.1415
    },
    {
      "name": "玉田",
      "full_name": "玉田县",
      "pinyin": "yu tian",
      "pinyin_prefix": "y",
      "code": "130229",
      "deep": 2,
      "lng": 117.738658,
      "lat": 39.900401
    },
    {
      "name": "遵化",
      "full_name": "遵化市",
      "pinyin": "zun hua",
      "pinyin_prefix": "z",
      "code": "130281",
      "deep": 2,
      "lng": 117.965892,
      "lat": 40.189201
    },
    {
      "name": "迁安",
      "full_name": "迁安市",
      "pinyin": "qian an",
      "pinyin_prefix": "q",
      "code": "130283",
      "deep": 2,
      "lng": 118.701144,
      "lat": 39.999174
    },
    {
      "name": "滦州",
      "full_name": "滦州市",
      "pinyin": "luan zhou",
      "pinyin_prefix": "l",
      "code": "130284",
      "deep": 2,
      "lng": 118.180193,
      "lat": 39.630867
    },
    {
      "name": "秦皇岛",
      "full_name": "秦皇岛市",
      "pinyin": "qin huang dao",
      "pinyin_prefix": "q",
      "code": "130300",
      "deep": 1,
      "lng": 119.518197,
      "lat": 39.888701
    },
    {
      "name": "海港",
      "full_name": "海港区",
      "pinyin": "hai gang",
      "pinyin_prefix": "h",
      "code": "130302",
      "deep": 2,
      "lng": 119.564962,
      "lat": 39.94756
    },
    {
      "name": "山海关",
      "full_name": "山海关区",
      "pinyin": "shan hai guan",
      "pinyin_prefix": "s",
      "code": "130303",
      "deep": 2,
      "lng": 119.775799,
      "lat": 39.978848
    },
    {
      "name": "北戴河",
      "full_name": "北戴河区",
      "pinyin": "bei dai he",
      "pinyin_prefix": "b",
      "code": "130304",
      "deep": 2,
      "lng": 119.484522,
      "lat": 39.834596
    },
    {
      "name": "抚宁",
      "full_name": "抚宁区",
      "pinyin": "fu ning",
      "pinyin_prefix": "f",
      "code": "130306",
      "deep": 2,
      "lng": 119.244847,
      "lat": 39.876253
    },
    {
      "name": "青龙",
      "full_name": "青龙满族自治县",
      "pinyin": "qing long",
      "pinyin_prefix": "q",
      "code": "130321",
      "deep": 2,
      "lng": 118.949684,
      "lat": 40.407578
    },
    {
      "name": "昌黎",
      "full_name": "昌黎县",
      "pinyin": "chang li",
      "pinyin_prefix": "c",
      "code": "130322",
      "deep": 2,
      "lng": 119.199551,
      "lat": 39.700911
    },
    {
      "name": "卢龙",
      "full_name": "卢龙县",
      "pinyin": "lu long",
      "pinyin_prefix": "l",
      "code": "130324",
      "deep": 2,
      "lng": 118.892986,
      "lat": 39.891946
    },
    {
      "name": "邯郸",
      "full_name": "邯郸市",
      "pinyin": "han dan",
      "pinyin_prefix": "h",
      "code": "130400",
      "deep": 1,
      "lng": 114.538959,
      "lat": 36.625594
    },
    {
      "name": "邯山",
      "full_name": "邯山区",
      "pinyin": "han shan",
      "pinyin_prefix": "h",
      "code": "130402",
      "deep": 2,
      "lng": 114.531002,
      "lat": 36.594313
    },
    {
      "name": "丛台",
      "full_name": "丛台区",
      "pinyin": "cong tai",
      "pinyin_prefix": "c",
      "code": "130403",
      "deep": 2,
      "lng": 114.492896,
      "lat": 36.636409
    },
    {
      "name": "复兴",
      "full_name": "复兴区",
      "pinyin": "fu xing",
      "pinyin_prefix": "f",
      "code": "130404",
      "deep": 2,
      "lng": 114.462061,
      "lat": 36.639033
    },
    {
      "name": "峰峰矿区",
      "full_name": "峰峰矿区",
      "pinyin": "feng feng kuang qu",
      "pinyin_prefix": "f",
      "code": "130406",
      "deep": 2,
      "lng": 114.212802,
      "lat": 36.419739
    },
    {
      "name": "肥乡",
      "full_name": "肥乡区",
      "pinyin": "fei xiang",
      "pinyin_prefix": "f",
      "code": "130407",
      "deep": 2,
      "lng": 114.800166,
      "lat": 36.548131
    },
    {
      "name": "永年",
      "full_name": "永年区",
      "pinyin": "yong nian",
      "pinyin_prefix": "y",
      "code": "130408",
      "deep": 2,
      "lng": 114.543832,
      "lat": 36.743966
    },
    {
      "name": "临漳",
      "full_name": "临漳县",
      "pinyin": "lin zhang",
      "pinyin_prefix": "l",
      "code": "130423",
      "deep": 2,
      "lng": 114.619536,
      "lat": 36.335025
    },
    {
      "name": "成安",
      "full_name": "成安县",
      "pinyin": "cheng an",
      "pinyin_prefix": "c",
      "code": "130424",
      "deep": 2,
      "lng": 114.670032,
      "lat": 36.444317
    },
    {
      "name": "大名",
      "full_name": "大名县",
      "pinyin": "da ming",
      "pinyin_prefix": "d",
      "code": "130425",
      "deep": 2,
      "lng": 115.147814,
      "lat": 36.285616
    },
    {
      "name": "涉县",
      "full_name": "涉县",
      "pinyin": "she xian",
      "pinyin_prefix": "s",
      "code": "130426",
      "deep": 2,
      "lng": 113.6914,
      "lat": 36.584994
    },
    {
      "name": "磁县",
      "full_name": "磁县",
      "pinyin": "ci xian",
      "pinyin_prefix": "c",
      "code": "130427",
      "deep": 2,
      "lng": 114.373946,
      "lat": 36.374011
    },
    {
      "name": "邱县",
      "full_name": "邱县",
      "pinyin": "qiu xian",
      "pinyin_prefix": "q",
      "code": "130430",
      "deep": 2,
      "lng": 115.200589,
      "lat": 36.811148
    },
    {
      "name": "鸡泽",
      "full_name": "鸡泽县",
      "pinyin": "ji ze",
      "pinyin_prefix": "j",
      "code": "130431",
      "deep": 2,
      "lng": 114.889376,
      "lat": 36.91034
    },
    {
      "name": "广平",
      "full_name": "广平县",
      "pinyin": "guang ping",
      "pinyin_prefix": "g",
      "code": "130432",
      "deep": 2,
      "lng": 114.948606,
      "lat": 36.483484
    },
    {
      "name": "馆陶",
      "full_name": "馆陶县",
      "pinyin": "guan tao",
      "pinyin_prefix": "g",
      "code": "130433",
      "deep": 2,
      "lng": 115.282467,
      "lat": 36.547556
    },
    {
      "name": "魏县",
      "full_name": "魏县",
      "pinyin": "wei xian",
      "pinyin_prefix": "w",
      "code": "130434",
      "deep": 2,
      "lng": 114.93892,
      "lat": 36.359868
    },
    {
      "name": "曲周",
      "full_name": "曲周县",
      "pinyin": "qu zhou",
      "pinyin_prefix": "q",
      "code": "130435",
      "deep": 2,
      "lng": 114.957504,
      "lat": 36.76607
    },
    {
      "name": "武安",
      "full_name": "武安市",
      "pinyin": "wu an",
      "pinyin_prefix": "w",
      "code": "130481",
      "deep": 2,
      "lng": 114.203697,
      "lat": 36.696506
    },
    {
      "name": "邢台",
      "full_name": "邢台市",
      "pinyin": "xing tai",
      "pinyin_prefix": "x",
      "code": "130500",
      "deep": 1,
      "lng": 114.504677,
      "lat": 37.070834
    },
    {
      "name": "襄都",
      "full_name": "襄都区",
      "pinyin": "xiang du",
      "pinyin_prefix": "x",
      "code": "130502",
      "deep": 2,
      "lng": 114.504677,
      "lat": 37.070834
    },
    {
      "name": "信都",
      "full_name": "信都区",
      "pinyin": "xin du",
      "pinyin_prefix": "x",
      "code": "130503",
      "deep": 2,
      "lng": 114.504677,
      "lat": 37.070834
    },
    {
      "name": "任泽",
      "full_name": "任泽区",
      "pinyin": "ren ze",
      "pinyin_prefix": "r",
      "code": "130505",
      "deep": 2,
      "lng": 114.504677,
      "lat": 37.070834
    },
    {
      "name": "南和",
      "full_name": "南和区",
      "pinyin": "nan he",
      "pinyin_prefix": "n",
      "code": "130506",
      "deep": 2,
      "lng": 114.504677,
      "lat": 37.070834
    },
    {
      "name": "临城",
      "full_name": "临城县",
      "pinyin": "lin cheng",
      "pinyin_prefix": "l",
      "code": "130522",
      "deep": 2,
      "lng": 114.498761,
      "lat": 37.444498
    },
    {
      "name": "内丘",
      "full_name": "内丘县",
      "pinyin": "nei qiu",
      "pinyin_prefix": "n",
      "code": "130523",
      "deep": 2,
      "lng": 114.512128,
      "lat": 37.286669
    },
    {
      "name": "柏乡",
      "full_name": "柏乡县",
      "pinyin": "bai xiang",
      "pinyin_prefix": "b",
      "code": "130524",
      "deep": 2,
      "lng": 114.693425,
      "lat": 37.482422
    },
    {
      "name": "隆尧",
      "full_name": "隆尧县",
      "pinyin": "long yao",
      "pinyin_prefix": "l",
      "code": "130525",
      "deep": 2,
      "lng": 114.770419,
      "lat": 37.350172
    },
    {
      "name": "宁晋",
      "full_name": "宁晋县",
      "pinyin": "ning jin",
      "pinyin_prefix": "n",
      "code": "130528",
      "deep": 2,
      "lng": 114.93992,
      "lat": 37.624564
    },
    {
      "name": "巨鹿",
      "full_name": "巨鹿县",
      "pinyin": "ju lu",
      "pinyin_prefix": "j",
      "code": "130529",
      "deep": 2,
      "lng": 115.037477,
      "lat": 37.221112
    },
    {
      "name": "新河",
      "full_name": "新河县",
      "pinyin": "xin he",
      "pinyin_prefix": "x",
      "code": "130530",
      "deep": 2,
      "lng": 115.250907,
      "lat": 37.520862
    },
    {
      "name": "广宗",
      "full_name": "广宗县",
      "pinyin": "guang zong",
      "pinyin_prefix": "g",
      "code": "130531",
      "deep": 2,
      "lng": 115.142626,
      "lat": 37.074661
    },
    {
      "name": "平乡",
      "full_name": "平乡县",
      "pinyin": "ping xiang",
      "pinyin_prefix": "p",
      "code": "130532",
      "deep": 2,
      "lng": 115.030075,
      "lat": 37.063148
    },
    {
      "name": "威县",
      "full_name": "威县",
      "pinyin": "wei xian",
      "pinyin_prefix": "w",
      "code": "130533",
      "deep": 2,
      "lng": 115.266703,
      "lat": 36.975478
    },
    {
      "name": "清河",
      "full_name": "清河县",
      "pinyin": "qing he",
      "pinyin_prefix": "q",
      "code": "130534",
      "deep": 2,
      "lng": 115.667208,
      "lat": 37.039991
    },
    {
      "name": "临西",
      "full_name": "临西县",
      "pinyin": "lin xi",
      "pinyin_prefix": "l",
      "code": "130535",
      "deep": 2,
      "lng": 115.501048,
      "lat": 36.870811
    },
    {
      "name": "南宫",
      "full_name": "南宫市",
      "pinyin": "nan gong",
      "pinyin_prefix": "n",
      "code": "130581",
      "deep": 2,
      "lng": 115.408747,
      "lat": 37.359264
    },
    {
      "name": "沙河",
      "full_name": "沙河市",
      "pinyin": "sha he",
      "pinyin_prefix": "s",
      "code": "130582",
      "deep": 2,
      "lng": 114.503339,
      "lat": 36.854929
    },
    {
      "name": "保定",
      "full_name": "保定市",
      "pinyin": "bao ding",
      "pinyin_prefix": "b",
      "code": "130600",
      "deep": 1,
      "lng": 115.464589,
      "lat": 38.874434
    },
    {
      "name": "竞秀",
      "full_name": "竞秀区",
      "pinyin": "jing xiu",
      "pinyin_prefix": "j",
      "code": "130602",
      "deep": 2,
      "lng": 115.45877,
      "lat": 38.877449
    },
    {
      "name": "莲池",
      "full_name": "莲池区",
      "pinyin": "lian chi",
      "pinyin_prefix": "l",
      "code": "130606",
      "deep": 2,
      "lng": 115.497097,
      "lat": 38.883582
    },
    {
      "name": "满城",
      "full_name": "满城区",
      "pinyin": "man cheng",
      "pinyin_prefix": "m",
      "code": "130607",
      "deep": 2,
      "lng": 115.322334,
      "lat": 38.949119
    },
    {
      "name": "清苑",
      "full_name": "清苑区",
      "pinyin": "qing yuan",
      "pinyin_prefix": "q",
      "code": "130608",
      "deep": 2,
      "lng": 115.489959,
      "lat": 38.765148
    },
    {
      "name": "徐水",
      "full_name": "徐水区",
      "pinyin": "xu shui",
      "pinyin_prefix": "x",
      "code": "130609",
      "deep": 2,
      "lng": 115.655774,
      "lat": 39.018736
    },
    {
      "name": "涞水",
      "full_name": "涞水县",
      "pinyin": "lai shui",
      "pinyin_prefix": "l",
      "code": "130623",
      "deep": 2,
      "lng": 115.713904,
      "lat": 39.394316
    },
    {
      "name": "阜平",
      "full_name": "阜平县",
      "pinyin": "fu ping",
      "pinyin_prefix": "f",
      "code": "130624",
      "deep": 2,
      "lng": 114.195104,
      "lat": 38.849152
    },
    {
      "name": "定兴",
      "full_name": "定兴县",
      "pinyin": "ding xing",
      "pinyin_prefix": "d",
      "code": "130626",
      "deep": 2,
      "lng": 115.808296,
      "lat": 39.263145
    },
    {
      "name": "唐县",
      "full_name": "唐县",
      "pinyin": "tang xian",
      "pinyin_prefix": "t",
      "code": "130627",
      "deep": 2,
      "lng": 114.982972,
      "lat": 38.748203
    },
    {
      "name": "高阳",
      "full_name": "高阳县",
      "pinyin": "gao yang",
      "pinyin_prefix": "g",
      "code": "130628",
      "deep": 2,
      "lng": 115.778965,
      "lat": 38.700088
    },
    {
      "name": "容城",
      "full_name": "容城县",
      "pinyin": "rong cheng",
      "pinyin_prefix": "r",
      "code": "130629",
      "deep": 2,
      "lng": 115.861657,
      "lat": 39.042784
    },
    {
      "name": "涞源",
      "full_name": "涞源县",
      "pinyin": "lai yuan",
      "pinyin_prefix": "l",
      "code": "130630",
      "deep": 2,
      "lng": 114.694283,
      "lat": 39.360247
    },
    {
      "name": "望都",
      "full_name": "望都县",
      "pinyin": "wang du",
      "pinyin_prefix": "w",
      "code": "130631",
      "deep": 2,
      "lng": 115.155128,
      "lat": 38.695842
    },
    {
      "name": "安新",
      "full_name": "安新县",
      "pinyin": "an xin",
      "pinyin_prefix": "a",
      "code": "130632",
      "deep": 2,
      "lng": 115.935603,
      "lat": 38.935369
    },
    {
      "name": "易县",
      "full_name": "易县",
      "pinyin": "yi xian",
      "pinyin_prefix": "y",
      "code": "130633",
      "deep": 2,
      "lng": 115.497457,
      "lat": 39.349393
    },
    {
      "name": "曲阳",
      "full_name": "曲阳县",
      "pinyin": "qu yang",
      "pinyin_prefix": "q",
      "code": "130634",
      "deep": 2,
      "lng": 114.745008,
      "lat": 38.622248
    },
    {
      "name": "蠡县",
      "full_name": "蠡县",
      "pinyin": "li xian",
      "pinyin_prefix": "l",
      "code": "130635",
      "deep": 2,
      "lng": 115.583854,
      "lat": 38.488055
    },
    {
      "name": "顺平",
      "full_name": "顺平县",
      "pinyin": "shun ping",
      "pinyin_prefix": "s",
      "code": "130636",
      "deep": 2,
      "lng": 115.13547,
      "lat": 38.837487
    },
    {
      "name": "博野",
      "full_name": "博野县",
      "pinyin": "bo ye",
      "pinyin_prefix": "b",
      "code": "130637",
      "deep": 2,
      "lng": 115.46438,
      "lat": 38.457364
    },
    {
      "name": "雄县",
      "full_name": "雄县",
      "pinyin": "xiong xian",
      "pinyin_prefix": "x",
      "code": "130638",
      "deep": 2,
      "lng": 116.10865,
      "lat": 38.99455
    },
    {
      "name": "涿州",
      "full_name": "涿州市",
      "pinyin": "zhuo zhou",
      "pinyin_prefix": "z",
      "code": "130681",
      "deep": 2,
      "lng": 115.974422,
      "lat": 39.485282
    },
    {
      "name": "定州",
      "full_name": "定州市",
      "pinyin": "ding zhou",
      "pinyin_prefix": "d",
      "code": "130682",
      "deep": 2,
      "lng": 114.990392,
      "lat": 38.516461
    },
    {
      "name": "安国",
      "full_name": "安国市",
      "pinyin": "an guo",
      "pinyin_prefix": "a",
      "code": "130683",
      "deep": 2,
      "lng": 115.326646,
      "lat": 38.418439
    },
    {
      "name": "高碑店",
      "full_name": "高碑店市",
      "pinyin": "gao bei dian",
      "pinyin_prefix": "g",
      "code": "130684",
      "deep": 2,
      "lng": 115.873886,
      "lat": 39.326839
    },
    {
      "name": "张家口",
      "full_name": "张家口市",
      "pinyin": "zhang jia kou",
      "pinyin_prefix": "z",
      "code": "130700",
      "deep": 1,
      "lng": 114.886252,
      "lat": 40.768493
    },
    {
      "name": "桥东",
      "full_name": "桥东区",
      "pinyin": "qiao dong",
      "pinyin_prefix": "q",
      "code": "130702",
      "deep": 2,
      "lng": 114.894189,
      "lat": 40.788434
    },
    {
      "name": "桥西",
      "full_name": "桥西区",
      "pinyin": "qiao xi",
      "pinyin_prefix": "q",
      "code": "130703",
      "deep": 2,
      "lng": 114.869657,
      "lat": 40.819581
    },
    {
      "name": "宣化",
      "full_name": "宣化区",
      "pinyin": "xuan hua",
      "pinyin_prefix": "x",
      "code": "130705",
      "deep": 2,
      "lng": 115.099494,
      "lat": 40.608793
    },
    {
      "name": "下花园",
      "full_name": "下花园区",
      "pinyin": "xia hua yuan",
      "pinyin_prefix": "x",
      "code": "130706",
      "deep": 2,
      "lng": 115.287352,
      "lat": 40.502652
    },
    {
      "name": "万全",
      "full_name": "万全区",
      "pinyin": "wan quan",
      "pinyin_prefix": "w",
      "code": "130708",
      "deep": 2,
      "lng": 114.740557,
      "lat": 40.766965
    },
    {
      "name": "崇礼",
      "full_name": "崇礼区",
      "pinyin": "chong li",
      "pinyin_prefix": "c",
      "code": "130709",
      "deep": 2,
      "lng": 115.282668,
      "lat": 40.974675
    },
    {
      "name": "张北",
      "full_name": "张北县",
      "pinyin": "zhang bei",
      "pinyin_prefix": "z",
      "code": "130722",
      "deep": 2,
      "lng": 114.720077,
      "lat": 41.158596
    },
    {
      "name": "康保",
      "full_name": "康保县",
      "pinyin": "kang bao",
      "pinyin_prefix": "k",
      "code": "130723",
      "deep": 2,
      "lng": 114.600404,
      "lat": 41.852368
    },
    {
      "name": "沽源",
      "full_name": "沽源县",
      "pinyin": "gu yuan",
      "pinyin_prefix": "g",
      "code": "130724",
      "deep": 2,
      "lng": 115.688692,
      "lat": 41.669668
    },
    {
      "name": "尚义",
      "full_name": "尚义县",
      "pinyin": "shang yi",
      "pinyin_prefix": "s",
      "code": "130725",
      "deep": 2,
      "lng": 113.969618,
      "lat": 41.076226
    },
    {
      "name": "蔚县",
      "full_name": "蔚县",
      "pinyin": "yu xian",
      "pinyin_prefix": "y",
      "code": "130726",
      "deep": 2,
      "lng": 114.588903,
      "lat": 39.840842
    },
    {
      "name": "阳原",
      "full_name": "阳原县",
      "pinyin": "yang yuan",
      "pinyin_prefix": "y",
      "code": "130727",
      "deep": 2,
      "lng": 114.150348,
      "lat": 40.104663
    },
    {
      "name": "怀安",
      "full_name": "怀安县",
      "pinyin": "huai an",
      "pinyin_prefix": "h",
      "code": "130728",
      "deep": 2,
      "lng": 114.385791,
      "lat": 40.674193
    },
    {
      "name": "怀来",
      "full_name": "怀来县",
      "pinyin": "huai lai",
      "pinyin_prefix": "h",
      "code": "130730",
      "deep": 2,
      "lng": 115.517861,
      "lat": 40.415343
    },
    {
      "name": "涿鹿",
      "full_name": "涿鹿县",
      "pinyin": "zhuo lu",
      "pinyin_prefix": "z",
      "code": "130731",
      "deep": 2,
      "lng": 115.205345,
      "lat": 40.379562
    },
    {
      "name": "赤城",
      "full_name": "赤城县",
      "pinyin": "chi cheng",
      "pinyin_prefix": "c",
      "code": "130732",
      "deep": 2,
      "lng": 115.831498,
      "lat": 40.912921
    },
    {
      "name": "承德",
      "full_name": "承德市",
      "pinyin": "cheng de",
      "pinyin_prefix": "c",
      "code": "130800",
      "deep": 1,
      "lng": 117.962749,
      "lat": 40.952942
    },
    {
      "name": "双桥",
      "full_name": "双桥区",
      "pinyin": "shuang qiao",
      "pinyin_prefix": "s",
      "code": "130802",
      "deep": 2,
      "lng": 117.943466,
      "lat": 40.974643
    },
    {
      "name": "双滦",
      "full_name": "双滦区",
      "pinyin": "shuang luan",
      "pinyin_prefix": "s",
      "code": "130803",
      "deep": 2,
      "lng": 117.799888,
      "lat": 40.959236
    },
    {
      "name": "鹰手营子矿区",
      "full_name": "鹰手营子矿区",
      "pinyin": "ying shou ying zi kuang qu",
      "pinyin_prefix": "y",
      "code": "130804",
      "deep": 2,
      "lng": 117.659499,
      "lat": 40.546361
    },
    {
      "name": "承德县",
      "full_name": "承德县",
      "pinyin": "cheng de xian",
      "pinyin_prefix": "c",
      "code": "130821",
      "deep": 2,
      "lng": 118.173824,
      "lat": 40.768238
    },
    {
      "name": "兴隆",
      "full_name": "兴隆县",
      "pinyin": "xing long",
      "pinyin_prefix": "x",
      "code": "130822",
      "deep": 2,
      "lng": 117.500558,
      "lat": 40.417358
    },
    {
      "name": "滦平",
      "full_name": "滦平县",
      "pinyin": "luan ping",
      "pinyin_prefix": "l",
      "code": "130824",
      "deep": 2,
      "lng": 117.332801,
      "lat": 40.941482
    },
    {
      "name": "隆化",
      "full_name": "隆化县",
      "pinyin": "long hua",
      "pinyin_prefix": "l",
      "code": "130825",
      "deep": 2,
      "lng": 117.738937,
      "lat": 41.313791
    },
    {
      "name": "丰宁",
      "full_name": "丰宁满族自治县",
      "pinyin": "feng ning",
      "pinyin_prefix": "f",
      "code": "130826",
      "deep": 2,
      "lng": 116.646051,
      "lat": 41.209069
    },
    {
      "name": "宽城",
      "full_name": "宽城满族自治县",
      "pinyin": "kuan cheng",
      "pinyin_prefix": "k",
      "code": "130827",
      "deep": 2,
      "lng": 118.485313,
      "lat": 40.611391
    },
    {
      "name": "围场",
      "full_name": "围场满族蒙古族自治县",
      "pinyin": "wei chang",
      "pinyin_prefix": "w",
      "code": "130828",
      "deep": 2,
      "lng": 117.760159,
      "lat": 41.938529
    },
    {
      "name": "平泉",
      "full_name": "平泉市",
      "pinyin": "ping quan",
      "pinyin_prefix": "p",
      "code": "130881",
      "deep": 2,
      "lng": 118.701951,
      "lat": 41.018405
    },
    {
      "name": "沧州",
      "full_name": "沧州市",
      "pinyin": "cang zhou",
      "pinyin_prefix": "c",
      "code": "130900",
      "deep": 1,
      "lng": 116.838834,
      "lat": 38.304477
    },
    {
      "name": "新华",
      "full_name": "新华区",
      "pinyin": "xin hua",
      "pinyin_prefix": "x",
      "code": "130902",
      "deep": 2,
      "lng": 116.866284,
      "lat": 38.314416
    },
    {
      "name": "运河",
      "full_name": "运河区",
      "pinyin": "yun he",
      "pinyin_prefix": "y",
      "code": "130903",
      "deep": 2,
      "lng": 116.843673,
      "lat": 38.283749
    },
    {
      "name": "沧县",
      "full_name": "沧县",
      "pinyin": "cang xian",
      "pinyin_prefix": "c",
      "code": "130921",
      "deep": 2,
      "lng": 117.007478,
      "lat": 38.219856
    },
    {
      "name": "青县",
      "full_name": "青县",
      "pinyin": "qing xian",
      "pinyin_prefix": "q",
      "code": "130922",
      "deep": 2,
      "lng": 116.804305,
      "lat": 38.583021
    },
    {
      "name": "东光",
      "full_name": "东光县",
      "pinyin": "dong guang",
      "pinyin_prefix": "d",
      "code": "130923",
      "deep": 2,
      "lng": 116.537067,
      "lat": 37.888248
    },
    {
      "name": "海兴",
      "full_name": "海兴县",
      "pinyin": "hai xing",
      "pinyin_prefix": "h",
      "code": "130924",
      "deep": 2,
      "lng": 117.497651,
      "lat": 38.143169
    },
    {
      "name": "盐山",
      "full_name": "盐山县",
      "pinyin": "yan shan",
      "pinyin_prefix": "y",
      "code": "130925",
      "deep": 2,
      "lng": 117.230602,
      "lat": 38.058087
    },
    {
      "name": "肃宁",
      "full_name": "肃宁县",
      "pinyin": "su ning",
      "pinyin_prefix": "s",
      "code": "130926",
      "deep": 2,
      "lng": 115.829758,
      "lat": 38.422801
    },
    {
      "name": "南皮",
      "full_name": "南皮县",
      "pinyin": "nan pi",
      "pinyin_prefix": "n",
      "code": "130927",
      "deep": 2,
      "lng": 116.708347,
      "lat": 38.038421
    },
    {
      "name": "吴桥",
      "full_name": "吴桥县",
      "pinyin": "wu qiao",
      "pinyin_prefix": "w",
      "code": "130928",
      "deep": 2,
      "lng": 116.391508,
      "lat": 37.627661
    },
    {
      "name": "献县",
      "full_name": "献县",
      "pinyin": "xian xian",
      "pinyin_prefix": "x",
      "code": "130929",
      "deep": 2,
      "lng": 116.122725,
      "lat": 38.190185
    },
    {
      "name": "孟村",
      "full_name": "孟村回族自治县",
      "pinyin": "meng cun",
      "pinyin_prefix": "m",
      "code": "130930",
      "deep": 2,
      "lng": 117.104298,
      "lat": 38.053409
    },
    {
      "name": "泊头",
      "full_name": "泊头市",
      "pinyin": "bo tou",
      "pinyin_prefix": "b",
      "code": "130981",
      "deep": 2,
      "lng": 116.578367,
      "lat": 38.083437
    },
    {
      "name": "任丘",
      "full_name": "任丘市",
      "pinyin": "ren qiu",
      "pinyin_prefix": "r",
      "code": "130982",
      "deep": 2,
      "lng": 116.082917,
      "lat": 38.683591
    },
    {
      "name": "黄骅",
      "full_name": "黄骅市",
      "pinyin": "huang hua",
      "pinyin_prefix": "h",
      "code": "130983",
      "deep": 2,
      "lng": 117.329949,
      "lat": 38.371402
    },
    {
      "name": "河间",
      "full_name": "河间市",
      "pinyin": "he jian",
      "pinyin_prefix": "h",
      "code": "130984",
      "deep": 2,
      "lng": 116.099517,
      "lat": 38.446624
    },
    {
      "name": "廊坊",
      "full_name": "廊坊市",
      "pinyin": "lang fang",
      "pinyin_prefix": "l",
      "code": "131000",
      "deep": 1,
      "lng": 116.683752,
      "lat": 39.538047
    },
    {
      "name": "安次",
      "full_name": "安次区",
      "pinyin": "an ci",
      "pinyin_prefix": "a",
      "code": "131002",
      "deep": 2,
      "lng": 116.694544,
      "lat": 39.502569
    },
    {
      "name": "广阳",
      "full_name": "广阳区",
      "pinyin": "guang yang",
      "pinyin_prefix": "g",
      "code": "131003",
      "deep": 2,
      "lng": 116.71069,
      "lat": 39.522786
    },
    {
      "name": "固安",
      "full_name": "固安县",
      "pinyin": "gu an",
      "pinyin_prefix": "g",
      "code": "131022",
      "deep": 2,
      "lng": 116.298657,
      "lat": 39.438214
    },
    {
      "name": "永清",
      "full_name": "永清县",
      "pinyin": "yong qing",
      "pinyin_prefix": "y",
      "code": "131023",
      "deep": 2,
      "lng": 116.50568,
      "lat": 39.330689
    },
    {
      "name": "香河",
      "full_name": "香河县",
      "pinyin": "xiang he",
      "pinyin_prefix": "x",
      "code": "131024",
      "deep": 2,
      "lng": 117.006093,
      "lat": 39.761424
    },
    {
      "name": "大城",
      "full_name": "大城县",
      "pinyin": "da cheng",
      "pinyin_prefix": "d",
      "code": "131025",
      "deep": 2,
      "lng": 116.653793,
      "lat": 38.705449
    },
    {
      "name": "文安",
      "full_name": "文安县",
      "pinyin": "wen an",
      "pinyin_prefix": "w",
      "code": "131026",
      "deep": 2,
      "lng": 116.457898,
      "lat": 38.87292
    },
    {
      "name": "大厂",
      "full_name": "大厂回族自治县",
      "pinyin": "da chang",
      "pinyin_prefix": "d",
      "code": "131028",
      "deep": 2,
      "lng": 116.989574,
      "lat": 39.886547
    },
    {
      "name": "霸州",
      "full_name": "霸州市",
      "pinyin": "ba zhou",
      "pinyin_prefix": "b",
      "code": "131081",
      "deep": 2,
      "lng": 116.391484,
      "lat": 39.125744
    },
    {
      "name": "三河",
      "full_name": "三河市",
      "pinyin": "san he",
      "pinyin_prefix": "s",
      "code": "131082",
      "deep": 2,
      "lng": 117.078294,
      "lat": 39.982718
    },
    {
      "name": "衡水",
      "full_name": "衡水市",
      "pinyin": "heng shui",
      "pinyin_prefix": "h",
      "code": "131100",
      "deep": 1,
      "lng": 115.670177,
      "lat": 37.73892
    },
    {
      "name": "桃城",
      "full_name": "桃城区",
      "pinyin": "tao cheng",
      "pinyin_prefix": "t",
      "code": "131102",
      "deep": 2,
      "lng": 115.67545,
      "lat": 37.735465
    },
    {
      "name": "冀州",
      "full_name": "冀州区",
      "pinyin": "ji zhou",
      "pinyin_prefix": "j",
      "code": "131103",
      "deep": 2,
      "lng": 115.579308,
      "lat": 37.550856
    },
    {
      "name": "枣强",
      "full_name": "枣强县",
      "pinyin": "zao qiang",
      "pinyin_prefix": "z",
      "code": "131121",
      "deep": 2,
      "lng": 115.724259,
      "lat": 37.513417
    },
    {
      "name": "武邑",
      "full_name": "武邑县",
      "pinyin": "wu yi",
      "pinyin_prefix": "w",
      "code": "131122",
      "deep": 2,
      "lng": 115.887531,
      "lat": 37.801665
    },
    {
      "name": "武强",
      "full_name": "武强县",
      "pinyin": "wu qiang",
      "pinyin_prefix": "w",
      "code": "131123",
      "deep": 2,
      "lng": 115.982461,
      "lat": 38.041368
    },
    {
      "name": "饶阳",
      "full_name": "饶阳县",
      "pinyin": "rao yang",
      "pinyin_prefix": "r",
      "code": "131124",
      "deep": 2,
      "lng": 115.725833,
      "lat": 38.235892
    },
    {
      "name": "安平",
      "full_name": "安平县",
      "pinyin": "an ping",
      "pinyin_prefix": "a",
      "code": "131125",
      "deep": 2,
      "lng": 115.519278,
      "lat": 38.234501
    },
    {
      "name": "故城",
      "full_name": "故城县",
      "pinyin": "gu cheng",
      "pinyin_prefix": "g",
      "code": "131126",
      "deep": 2,
      "lng": 115.965874,
      "lat": 37.347409
    },
    {
      "name": "景县",
      "full_name": "景县",
      "pinyin": "jing xian",
      "pinyin_prefix": "j",
      "code": "131127",
      "deep": 2,
      "lng": 116.270648,
      "lat": 37.69229
    },
    {
      "name": "阜城",
      "full_name": "阜城县",
      "pinyin": "fu cheng",
      "pinyin_prefix": "f",
      "code": "131128",
      "deep": 2,
      "lng": 116.175262,
      "lat": 37.862505
    },
    {
      "name": "深州",
      "full_name": "深州市",
      "pinyin": "shen zhou",
      "pinyin_prefix": "s",
      "code": "131182",
      "deep": 2,
      "lng": 115.559574,
      "lat": 38.001535
    },
    {
      "name": "山西",
      "full_name": "山西省",
      "pinyin": "shan xi",
      "pinyin_prefix": "s",
      "code": "140000",
      "deep": 0,
      "lng": 112.562678,
      "lat": 37.873499
    },
    {
      "name": "太原",
      "full_name": "太原市",
      "pinyin": "tai yuan",
      "pinyin_prefix": "t",
      "code": "140100",
      "deep": 1,
      "lng": 112.548879,
      "lat": 37.87059
    },
    {
      "name": "小店",
      "full_name": "小店区",
      "pinyin": "xiao dian",
      "pinyin_prefix": "x",
      "code": "140105",
      "deep": 2,
      "lng": 112.565659,
      "lat": 37.736525
    },
    {
      "name": "迎泽",
      "full_name": "迎泽区",
      "pinyin": "ying ze",
      "pinyin_prefix": "y",
      "code": "140106",
      "deep": 2,
      "lng": 112.5634,
      "lat": 37.863451
    },
    {
      "name": "杏花岭",
      "full_name": "杏花岭区",
      "pinyin": "xing hua ling",
      "pinyin_prefix": "x",
      "code": "140107",
      "deep": 2,
      "lng": 112.570604,
      "lat": 37.893955
    },
    {
      "name": "尖草坪",
      "full_name": "尖草坪区",
      "pinyin": "jian cao ping",
      "pinyin_prefix": "j",
      "code": "140108",
      "deep": 2,
      "lng": 112.486691,
      "lat": 37.940387
    },
    {
      "name": "万柏林",
      "full_name": "万柏林区",
      "pinyin": "wan bai lin",
      "pinyin_prefix": "w",
      "code": "140109",
      "deep": 2,
      "lng": 112.515937,
      "lat": 37.85958
    },
    {
      "name": "晋源",
      "full_name": "晋源区",
      "pinyin": "jin yuan",
      "pinyin_prefix": "j",
      "code": "140110",
      "deep": 2,
      "lng": 112.47794,
      "lat": 37.715193
    },
    {
      "name": "清徐",
      "full_name": "清徐县",
      "pinyin": "qing xu",
      "pinyin_prefix": "q",
      "code": "140121",
      "deep": 2,
      "lng": 112.358667,
      "lat": 37.607443
    },
    {
      "name": "阳曲",
      "full_name": "阳曲县",
      "pinyin": "yang qu",
      "pinyin_prefix": "y",
      "code": "140122",
      "deep": 2,
      "lng": 112.672952,
      "lat": 38.058488
    },
    {
      "name": "娄烦",
      "full_name": "娄烦县",
      "pinyin": "lou fan",
      "pinyin_prefix": "l",
      "code": "140123",
      "deep": 2,
      "lng": 111.797083,
      "lat": 38.067932
    },
    {
      "name": "古交",
      "full_name": "古交市",
      "pinyin": "gu jiao",
      "pinyin_prefix": "g",
      "code": "140181",
      "deep": 2,
      "lng": 112.175853,
      "lat": 37.907129
    },
    {
      "name": "大同",
      "full_name": "大同市",
      "pinyin": "da tong",
      "pinyin_prefix": "d",
      "code": "140200",
      "deep": 1,
      "lng": 113.300129,
      "lat": 40.076763
    },
    {
      "name": "新荣",
      "full_name": "新荣区",
      "pinyin": "xin rong",
      "pinyin_prefix": "x",
      "code": "140212",
      "deep": 2,
      "lng": 113.140004,
      "lat": 40.255866
    },
    {
      "name": "平城",
      "full_name": "平城区",
      "pinyin": "ping cheng",
      "pinyin_prefix": "p",
      "code": "140213",
      "deep": 2,
      "lng": 113.300129,
      "lat": 40.076763
    },
    {
      "name": "云冈",
      "full_name": "云冈区",
      "pinyin": "yun gang",
      "pinyin_prefix": "y",
      "code": "140214",
      "deep": 2,
      "lng": 113.300129,
      "lat": 40.076763
    },
    {
      "name": "云州",
      "full_name": "云州区",
      "pinyin": "yun zhou",
      "pinyin_prefix": "y",
      "code": "140215",
      "deep": 2,
      "lng": 113.300129,
      "lat": 40.076763
    },
    {
      "name": "阳高",
      "full_name": "阳高县",
      "pinyin": "yang gao",
      "pinyin_prefix": "y",
      "code": "140221",
      "deep": 2,
      "lng": 113.748944,
      "lat": 40.361059
    },
    {
      "name": "天镇",
      "full_name": "天镇县",
      "pinyin": "tian zhen",
      "pinyin_prefix": "t",
      "code": "140222",
      "deep": 2,
      "lng": 114.090867,
      "lat": 40.420237
    },
    {
      "name": "广灵",
      "full_name": "广灵县",
      "pinyin": "guang ling",
      "pinyin_prefix": "g",
      "code": "140223",
      "deep": 2,
      "lng": 114.282758,
      "lat": 39.760281
    },
    {
      "name": "灵丘",
      "full_name": "灵丘县",
      "pinyin": "ling qiu",
      "pinyin_prefix": "l",
      "code": "140224",
      "deep": 2,
      "lng": 114.23435,
      "lat": 39.442406
    },
    {
      "name": "浑源",
      "full_name": "浑源县",
      "pinyin": "hun yuan",
      "pinyin_prefix": "h",
      "code": "140225",
      "deep": 2,
      "lng": 113.699475,
      "lat": 39.693406
    },
    {
      "name": "左云",
      "full_name": "左云县",
      "pinyin": "zuo yun",
      "pinyin_prefix": "z",
      "code": "140226",
      "deep": 2,
      "lng": 112.703008,
      "lat": 40.013442
    },
    {
      "name": "阳泉",
      "full_name": "阳泉市",
      "pinyin": "yang quan",
      "pinyin_prefix": "y",
      "code": "140300",
      "deep": 1,
      "lng": 113.580519,
      "lat": 37.856971
    },
    {
      "name": "城区",
      "full_name": "城区",
      "pinyin": "cheng qu",
      "pinyin_prefix": "c",
      "code": "140302",
      "deep": 2,
      "lng": 113.600669,
      "lat": 37.847436
    },
    {
      "name": "矿区",
      "full_name": "矿区",
      "pinyin": "kuang qu",
      "pinyin_prefix": "k",
      "code": "140303",
      "deep": 2,
      "lng": 113.555279,
      "lat": 37.868494
    },
    {
      "name": "郊区",
      "full_name": "郊区",
      "pinyin": "jiao qu",
      "pinyin_prefix": "j",
      "code": "140311",
      "deep": 2,
      "lng": 113.594163,
      "lat": 37.944679
    },
    {
      "name": "平定",
      "full_name": "平定县",
      "pinyin": "ping ding",
      "pinyin_prefix": "p",
      "code": "140321",
      "deep": 2,
      "lng": 113.630107,
      "lat": 37.804988
    },
    {
      "name": "盂县",
      "full_name": "盂县",
      "pinyin": "yu xian",
      "pinyin_prefix": "y",
      "code": "140322",
      "deep": 2,
      "lng": 113.41233,
      "lat": 38.085619
    },
    {
      "name": "长治",
      "full_name": "长治市",
      "pinyin": "chang zhi",
      "pinyin_prefix": "c",
      "code": "140400",
      "deep": 1,
      "lng": 113.116404,
      "lat": 36.195409
    },
    {
      "name": "潞州",
      "full_name": "潞州区",
      "pinyin": "lu zhou",
      "pinyin_prefix": "l",
      "code": "140403",
      "deep": 2,
      "lng": 113.116404,
      "lat": 36.195409
    },
    {
      "name": "上党",
      "full_name": "上党区",
      "pinyin": "shang dang",
      "pinyin_prefix": "s",
      "code": "140404",
      "deep": 2,
      "lng": 113.116404,
      "lat": 36.195409
    },
    {
      "name": "屯留",
      "full_name": "屯留区",
      "pinyin": "tun liu",
      "pinyin_prefix": "t",
      "code": "140405",
      "deep": 2,
      "lng": 113.116404,
      "lat": 36.195409
    },
    {
      "name": "潞城",
      "full_name": "潞城区",
      "pinyin": "lu cheng",
      "pinyin_prefix": "l",
      "code": "140406",
      "deep": 2,
      "lng": 113.116404,
      "lat": 36.195409
    },
    {
      "name": "襄垣",
      "full_name": "襄垣县",
      "pinyin": "xiang yuan",
      "pinyin_prefix": "x",
      "code": "140423",
      "deep": 2,
      "lng": 113.051491,
      "lat": 36.535817
    },
    {
      "name": "平顺",
      "full_name": "平顺县",
      "pinyin": "ping shun",
      "pinyin_prefix": "p",
      "code": "140425",
      "deep": 2,
      "lng": 113.435961,
      "lat": 36.200179
    },
    {
      "name": "黎城",
      "full_name": "黎城县",
      "pinyin": "li cheng",
      "pinyin_prefix": "l",
      "code": "140426",
      "deep": 2,
      "lng": 113.387155,
      "lat": 36.502328
    },
    {
      "name": "壶关",
      "full_name": "壶关县",
      "pinyin": "hu guan",
      "pinyin_prefix": "h",
      "code": "140427",
      "deep": 2,
      "lng": 113.207049,
      "lat": 36.115448
    },
    {
      "name": "长子",
      "full_name": "长子县",
      "pinyin": "zhang zi",
      "pinyin_prefix": "z",
      "code": "140428",
      "deep": 2,
      "lng": 112.8779,
      "lat": 36.122334
    },
    {
      "name": "武乡",
      "full_name": "武乡县",
      "pinyin": "wu xiang",
      "pinyin_prefix": "w",
      "code": "140429",
      "deep": 2,
      "lng": 112.864561,
      "lat": 36.837625
    },
    {
      "name": "沁县",
      "full_name": "沁县",
      "pinyin": "qin xian",
      "pinyin_prefix": "q",
      "code": "140430",
      "deep": 2,
      "lng": 112.699226,
      "lat": 36.756063
    },
    {
      "name": "沁源",
      "full_name": "沁源县",
      "pinyin": "qin yuan",
      "pinyin_prefix": "q",
      "code": "140431",
      "deep": 2,
      "lng": 112.337446,
      "lat": 36.5002
    },
    {
      "name": "晋城",
      "full_name": "晋城市",
      "pinyin": "jin cheng",
      "pinyin_prefix": "j",
      "code": "140500",
      "deep": 1,
      "lng": 112.851486,
      "lat": 35.490684
    },
    {
      "name": "城区",
      "full_name": "城区",
      "pinyin": "cheng qu",
      "pinyin_prefix": "c",
      "code": "140502",
      "deep": 2,
      "lng": 112.853555,
      "lat": 35.501571
    },
    {
      "name": "沁水",
      "full_name": "沁水县",
      "pinyin": "qin shui",
      "pinyin_prefix": "q",
      "code": "140521",
      "deep": 2,
      "lng": 112.186738,
      "lat": 35.690141
    },
    {
      "name": "阳城",
      "full_name": "阳城县",
      "pinyin": "yang cheng",
      "pinyin_prefix": "y",
      "code": "140522",
      "deep": 2,
      "lng": 112.414738,
      "lat": 35.486029
    },
    {
      "name": "陵川",
      "full_name": "陵川县",
      "pinyin": "ling chuan",
      "pinyin_prefix": "l",
      "code": "140524",
      "deep": 2,
      "lng": 113.280688,
      "lat": 35.775685
    },
    {
      "name": "泽州",
      "full_name": "泽州县",
      "pinyin": "ze zhou",
      "pinyin_prefix": "z",
      "code": "140525",
      "deep": 2,
      "lng": 112.899137,
      "lat": 35.617221
    },
    {
      "name": "高平",
      "full_name": "高平市",
      "pinyin": "gao ping",
      "pinyin_prefix": "g",
      "code": "140581",
      "deep": 2,
      "lng": 112.92392,
      "lat": 35.797997
    },
    {
      "name": "朔州",
      "full_name": "朔州市",
      "pinyin": "shuo zhou",
      "pinyin_prefix": "s",
      "code": "140600",
      "deep": 1,
      "lng": 112.432991,
      "lat": 39.331855
    },
    {
      "name": "朔城",
      "full_name": "朔城区",
      "pinyin": "shuo cheng",
      "pinyin_prefix": "s",
      "code": "140602",
      "deep": 2,
      "lng": 112.432312,
      "lat": 39.319519
    },
    {
      "name": "平鲁",
      "full_name": "平鲁区",
      "pinyin": "ping lu",
      "pinyin_prefix": "p",
      "code": "140603",
      "deep": 2,
      "lng": 112.28833,
      "lat": 39.512155
    },
    {
      "name": "山阴",
      "full_name": "山阴县",
      "pinyin": "shan yin",
      "pinyin_prefix": "s",
      "code": "140621",
      "deep": 2,
      "lng": 112.816413,
      "lat": 39.527893
    },
    {
      "name": "应县",
      "full_name": "应县",
      "pinyin": "ying xian",
      "pinyin_prefix": "y",
      "code": "140622",
      "deep": 2,
      "lng": 113.191098,
      "lat": 39.554247
    },
    {
      "name": "右玉",
      "full_name": "右玉县",
      "pinyin": "you yu",
      "pinyin_prefix": "y",
      "code": "140623",
      "deep": 2,
      "lng": 112.466989,
      "lat": 39.989063
    },
    {
      "name": "怀仁",
      "full_name": "怀仁市",
      "pinyin": "huai ren",
      "pinyin_prefix": "h",
      "code": "140681",
      "deep": 2,
      "lng": 112.432991,
      "lat": 39.331855
    },
    {
      "name": "晋中",
      "full_name": "晋中市",
      "pinyin": "jin zhong",
      "pinyin_prefix": "j",
      "code": "140700",
      "deep": 1,
      "lng": 112.752652,
      "lat": 37.687357
    },
    {
      "name": "榆次",
      "full_name": "榆次区",
      "pinyin": "yu ci",
      "pinyin_prefix": "y",
      "code": "140702",
      "deep": 2,
      "lng": 112.708224,
      "lat": 37.697794
    },
    {
      "name": "太谷",
      "full_name": "太谷区",
      "pinyin": "tai gu",
      "pinyin_prefix": "t",
      "code": "140703",
      "deep": 2,
      "lng": 112.752652,
      "lat": 37.687357
    },
    {
      "name": "榆社",
      "full_name": "榆社县",
      "pinyin": "yu she",
      "pinyin_prefix": "y",
      "code": "140721",
      "deep": 2,
      "lng": 112.975209,
      "lat": 37.070916
    },
    {
      "name": "左权",
      "full_name": "左权县",
      "pinyin": "zuo quan",
      "pinyin_prefix": "z",
      "code": "140722",
      "deep": 2,
      "lng": 113.379403,
      "lat": 37.082943
    },
    {
      "name": "和顺",
      "full_name": "和顺县",
      "pinyin": "he shun",
      "pinyin_prefix": "h",
      "code": "140723",
      "deep": 2,
      "lng": 113.570415,
      "lat": 37.32957
    },
    {
      "name": "昔阳",
      "full_name": "昔阳县",
      "pinyin": "xi yang",
      "pinyin_prefix": "x",
      "code": "140724",
      "deep": 2,
      "lng": 113.706977,
      "lat": 37.61253
    },
    {
      "name": "寿阳",
      "full_name": "寿阳县",
      "pinyin": "shou yang",
      "pinyin_prefix": "s",
      "code": "140725",
      "deep": 2,
      "lng": 113.176373,
      "lat": 37.895191
    },
    {
      "name": "祁县",
      "full_name": "祁县",
      "pinyin": "qi xian",
      "pinyin_prefix": "q",
      "code": "140727",
      "deep": 2,
      "lng": 112.335542,
      "lat": 37.357869
    },
    {
      "name": "平遥",
      "full_name": "平遥县",
      "pinyin": "ping yao",
      "pinyin_prefix": "p",
      "code": "140728",
      "deep": 2,
      "lng": 112.176136,
      "lat": 37.189421
    },
    {
      "name": "灵石",
      "full_name": "灵石县",
      "pinyin": "ling shi",
      "pinyin_prefix": "l",
      "code": "140729",
      "deep": 2,
      "lng": 111.77864,
      "lat": 36.847927
    },
    {
      "name": "介休",
      "full_name": "介休市",
      "pinyin": "jie xiu",
      "pinyin_prefix": "j",
      "code": "140781",
      "deep": 2,
      "lng": 111.916711,
      "lat": 37.026944
    },
    {
      "name": "运城",
      "full_name": "运城市",
      "pinyin": "yun cheng",
      "pinyin_prefix": "y",
      "code": "140800",
      "deep": 1,
      "lng": 111.00746,
      "lat": 35.026516
    },
    {
      "name": "盐湖",
      "full_name": "盐湖区",
      "pinyin": "yan hu",
      "pinyin_prefix": "y",
      "code": "140802",
      "deep": 2,
      "lng": 110.998272,
      "lat": 35.015101
    },
    {
      "name": "临猗",
      "full_name": "临猗县",
      "pinyin": "lin yi",
      "pinyin_prefix": "l",
      "code": "140821",
      "deep": 2,
      "lng": 110.774547,
      "lat": 35.144277
    },
    {
      "name": "万荣",
      "full_name": "万荣县",
      "pinyin": "wan rong",
      "pinyin_prefix": "w",
      "code": "140822",
      "deep": 2,
      "lng": 110.838024,
      "lat": 35.415253
    },
    {
      "name": "闻喜",
      "full_name": "闻喜县",
      "pinyin": "wen xi",
      "pinyin_prefix": "w",
      "code": "140823",
      "deep": 2,
      "lng": 111.22472,
      "lat": 35.356644
    },
    {
      "name": "稷山",
      "full_name": "稷山县",
      "pinyin": "ji shan",
      "pinyin_prefix": "j",
      "code": "140824",
      "deep": 2,
      "lng": 110.983333,
      "lat": 35.604025
    },
    {
      "name": "新绛",
      "full_name": "新绛县",
      "pinyin": "xin jiang",
      "pinyin_prefix": "x",
      "code": "140825",
      "deep": 2,
      "lng": 111.224734,
      "lat": 35.616251
    },
    {
      "name": "绛县",
      "full_name": "绛县",
      "pinyin": "jiang xian",
      "pinyin_prefix": "j",
      "code": "140826",
      "deep": 2,
      "lng": 111.568236,
      "lat": 35.49119
    },
    {
      "name": "垣曲",
      "full_name": "垣曲县",
      "pinyin": "yuan qu",
      "pinyin_prefix": "y",
      "code": "140827",
      "deep": 2,
      "lng": 111.670108,
      "lat": 35.297369
    },
    {
      "name": "夏县",
      "full_name": "夏县",
      "pinyin": "xia xian",
      "pinyin_prefix": "x",
      "code": "140828",
      "deep": 2,
      "lng": 111.220456,
      "lat": 35.141363
    },
    {
      "name": "平陆",
      "full_name": "平陆县",
      "pinyin": "ping lu",
      "pinyin_prefix": "p",
      "code": "140829",
      "deep": 2,
      "lng": 111.194133,
      "lat": 34.82926
    },
    {
      "name": "芮城",
      "full_name": "芮城县",
      "pinyin": "rui cheng",
      "pinyin_prefix": "r",
      "code": "140830",
      "deep": 2,
      "lng": 110.694369,
      "lat": 34.693579
    },
    {
      "name": "永济",
      "full_name": "永济市",
      "pinyin": "yong ji",
      "pinyin_prefix": "y",
      "code": "140881",
      "deep": 2,
      "lng": 110.447543,
      "lat": 34.8671
    },
    {
      "name": "河津",
      "full_name": "河津市",
      "pinyin": "he jin",
      "pinyin_prefix": "h",
      "code": "140882",
      "deep": 2,
      "lng": 110.712063,
      "lat": 35.596383
    },
    {
      "name": "忻州",
      "full_name": "忻州市",
      "pinyin": "xin zhou",
      "pinyin_prefix": "x",
      "code": "140900",
      "deep": 1,
      "lng": 112.734174,
      "lat": 38.416663
    },
    {
      "name": "忻府",
      "full_name": "忻府区",
      "pinyin": "xin fu",
      "pinyin_prefix": "x",
      "code": "140902",
      "deep": 2,
      "lng": 112.746046,
      "lat": 38.404242
    },
    {
      "name": "定襄",
      "full_name": "定襄县",
      "pinyin": "ding xiang",
      "pinyin_prefix": "d",
      "code": "140921",
      "deep": 2,
      "lng": 112.957237,
      "lat": 38.473506
    },
    {
      "name": "五台",
      "full_name": "五台县",
      "pinyin": "wu tai",
      "pinyin_prefix": "w",
      "code": "140922",
      "deep": 2,
      "lng": 113.255309,
      "lat": 38.728315
    },
    {
      "name": "代县",
      "full_name": "代县",
      "pinyin": "dai xian",
      "pinyin_prefix": "d",
      "code": "140923",
      "deep": 2,
      "lng": 112.960282,
      "lat": 39.066917
    },
    {
      "name": "繁峙",
      "full_name": "繁峙县",
      "pinyin": "fan shi",
      "pinyin_prefix": "f",
      "code": "140924",
      "deep": 2,
      "lng": 113.265563,
      "lat": 39.188811
    },
    {
      "name": "宁武",
      "full_name": "宁武县",
      "pinyin": "ning wu",
      "pinyin_prefix": "n",
      "code": "140925",
      "deep": 2,
      "lng": 112.304722,
      "lat": 39.001524
    },
    {
      "name": "静乐",
      "full_name": "静乐县",
      "pinyin": "jing le",
      "pinyin_prefix": "j",
      "code": "140926",
      "deep": 2,
      "lng": 111.939498,
      "lat": 38.359306
    },
    {
      "name": "神池",
      "full_name": "神池县",
      "pinyin": "shen chi",
      "pinyin_prefix": "s",
      "code": "140927",
      "deep": 2,
      "lng": 112.211296,
      "lat": 39.090552
    },
    {
      "name": "五寨",
      "full_name": "五寨县",
      "pinyin": "wu zhai",
      "pinyin_prefix": "w",
      "code": "140928",
      "deep": 2,
      "lng": 111.846904,
      "lat": 38.910726
    },
    {
      "name": "岢岚",
      "full_name": "岢岚县",
      "pinyin": "ke lan",
      "pinyin_prefix": "k",
      "code": "140929",
      "deep": 2,
      "lng": 111.57285,
      "lat": 38.70418
    },
    {
      "name": "河曲",
      "full_name": "河曲县",
      "pinyin": "he qu",
      "pinyin_prefix": "h",
      "code": "140930",
      "deep": 2,
      "lng": 111.138472,
      "lat": 39.384482
    },
    {
      "name": "保德",
      "full_name": "保德县",
      "pinyin": "bao de",
      "pinyin_prefix": "b",
      "code": "140931",
      "deep": 2,
      "lng": 111.086564,
      "lat": 39.022487
    },
    {
      "name": "偏关",
      "full_name": "偏关县",
      "pinyin": "pian guan",
      "pinyin_prefix": "p",
      "code": "140932",
      "deep": 2,
      "lng": 111.508831,
      "lat": 39.436306
    },
    {
      "name": "原平",
      "full_name": "原平市",
      "pinyin": "yuan ping",
      "pinyin_prefix": "y",
      "code": "140981",
      "deep": 2,
      "lng": 112.711058,
      "lat": 38.731402
    },
    {
      "name": "临汾",
      "full_name": "临汾市",
      "pinyin": "lin fen",
      "pinyin_prefix": "l",
      "code": "141000",
      "deep": 1,
      "lng": 111.518975,
      "lat": 36.088005
    },
    {
      "name": "尧都",
      "full_name": "尧都区",
      "pinyin": "yao du",
      "pinyin_prefix": "y",
      "code": "141002",
      "deep": 2,
      "lng": 111.579554,
      "lat": 36.07884
    },
    {
      "name": "曲沃",
      "full_name": "曲沃县",
      "pinyin": "qu wo",
      "pinyin_prefix": "q",
      "code": "141021",
      "deep": 2,
      "lng": 111.47586,
      "lat": 35.641086
    },
    {
      "name": "翼城",
      "full_name": "翼城县",
      "pinyin": "yi cheng",
      "pinyin_prefix": "y",
      "code": "141022",
      "deep": 2,
      "lng": 111.718951,
      "lat": 35.738576
    },
    {
      "name": "襄汾",
      "full_name": "襄汾县",
      "pinyin": "xiang fen",
      "pinyin_prefix": "x",
      "code": "141023",
      "deep": 2,
      "lng": 111.441725,
      "lat": 35.876293
    },
    {
      "name": "洪洞",
      "full_name": "洪洞县",
      "pinyin": "hong tong",
      "pinyin_prefix": "h",
      "code": "141024",
      "deep": 2,
      "lng": 111.674965,
      "lat": 36.253747
    },
    {
      "name": "古县",
      "full_name": "古县",
      "pinyin": "gu xian",
      "pinyin_prefix": "g",
      "code": "141025",
      "deep": 2,
      "lng": 111.920465,
      "lat": 36.266914
    },
    {
      "name": "安泽",
      "full_name": "安泽县",
      "pinyin": "an ze",
      "pinyin_prefix": "a",
      "code": "141026",
      "deep": 2,
      "lng": 112.250144,
      "lat": 36.147787
    },
    {
      "name": "浮山",
      "full_name": "浮山县",
      "pinyin": "fu shan",
      "pinyin_prefix": "f",
      "code": "141027",
      "deep": 2,
      "lng": 111.848883,
      "lat": 35.968124
    },
    {
      "name": "吉县",
      "full_name": "吉县",
      "pinyin": "ji xian",
      "pinyin_prefix": "j",
      "code": "141028",
      "deep": 2,
      "lng": 110.681763,
      "lat": 36.098188
    },
    {
      "name": "乡宁",
      "full_name": "乡宁县",
      "pinyin": "xiang ning",
      "pinyin_prefix": "x",
      "code": "141029",
      "deep": 2,
      "lng": 110.847021,
      "lat": 35.970389
    },
    {
      "name": "大宁",
      "full_name": "大宁县",
      "pinyin": "da ning",
      "pinyin_prefix": "d",
      "code": "141030",
      "deep": 2,
      "lng": 110.75291,
      "lat": 36.465102
    },
    {
      "name": "隰县",
      "full_name": "隰县",
      "pinyin": "xi xian",
      "pinyin_prefix": "x",
      "code": "141031",
      "deep": 2,
      "lng": 110.940637,
      "lat": 36.69333
    },
    {
      "name": "永和",
      "full_name": "永和县",
      "pinyin": "yong he",
      "pinyin_prefix": "y",
      "code": "141032",
      "deep": 2,
      "lng": 110.632006,
      "lat": 36.759507
    },
    {
      "name": "蒲县",
      "full_name": "蒲县",
      "pinyin": "pu xian",
      "pinyin_prefix": "p",
      "code": "141033",
      "deep": 2,
      "lng": 111.096439,
      "lat": 36.411826
    },
    {
      "name": "汾西",
      "full_name": "汾西县",
      "pinyin": "fen xi",
      "pinyin_prefix": "f",
      "code": "141034",
      "deep": 2,
      "lng": 111.56395,
      "lat": 36.652854
    },
    {
      "name": "侯马",
      "full_name": "侯马市",
      "pinyin": "hou ma",
      "pinyin_prefix": "h",
      "code": "141081",
      "deep": 2,
      "lng": 111.372002,
      "lat": 35.619105
    },
    {
      "name": "霍州",
      "full_name": "霍州市",
      "pinyin": "huo zhou",
      "pinyin_prefix": "h",
      "code": "141082",
      "deep": 2,
      "lng": 111.755398,
      "lat": 36.56893
    },
    {
      "name": "吕梁",
      "full_name": "吕梁市",
      "pinyin": "lv liang",
      "pinyin_prefix": "l",
      "code": "141100",
      "deep": 1,
      "lng": 111.144699,
      "lat": 37.519126
    },
    {
      "name": "离石",
      "full_name": "离石区",
      "pinyin": "li shi",
      "pinyin_prefix": "l",
      "code": "141102",
      "deep": 2,
      "lng": 111.150695,
      "lat": 37.51786
    },
    {
      "name": "文水",
      "full_name": "文水县",
      "pinyin": "wen shui",
      "pinyin_prefix": "w",
      "code": "141121",
      "deep": 2,
      "lng": 112.028866,
      "lat": 37.438101
    },
    {
      "name": "交城",
      "full_name": "交城县",
      "pinyin": "jiao cheng",
      "pinyin_prefix": "j",
      "code": "141122",
      "deep": 2,
      "lng": 112.156064,
      "lat": 37.551963
    },
    {
      "name": "兴县",
      "full_name": "兴县",
      "pinyin": "xing xian",
      "pinyin_prefix": "x",
      "code": "141123",
      "deep": 2,
      "lng": 111.127667,
      "lat": 38.462389
    },
    {
      "name": "临县",
      "full_name": "临县",
      "pinyin": "lin xian",
      "pinyin_prefix": "l",
      "code": "141124",
      "deep": 2,
      "lng": 110.992093,
      "lat": 37.950758
    },
    {
      "name": "柳林",
      "full_name": "柳林县",
      "pinyin": "liu lin",
      "pinyin_prefix": "l",
      "code": "141125",
      "deep": 2,
      "lng": 110.889007,
      "lat": 37.429772
    },
    {
      "name": "石楼",
      "full_name": "石楼县",
      "pinyin": "shi lou",
      "pinyin_prefix": "s",
      "code": "141126",
      "deep": 2,
      "lng": 110.834634,
      "lat": 36.99857
    },
    {
      "name": "岚县",
      "full_name": "岚县",
      "pinyin": "lan xian",
      "pinyin_prefix": "l",
      "code": "141127",
      "deep": 2,
      "lng": 111.671917,
      "lat": 38.279299
    },
    {
      "name": "方山",
      "full_name": "方山县",
      "pinyin": "fang shan",
      "pinyin_prefix": "f",
      "code": "141128",
      "deep": 2,
      "lng": 111.244098,
      "lat": 37.894631
    },
    {
      "name": "中阳",
      "full_name": "中阳县",
      "pinyin": "zhong yang",
      "pinyin_prefix": "z",
      "code": "141129",
      "deep": 2,
      "lng": 111.179657,
      "lat": 37.357058
    },
    {
      "name": "交口",
      "full_name": "交口县",
      "pinyin": "jiao kou",
      "pinyin_prefix": "j",
      "code": "141130",
      "deep": 2,
      "lng": 111.181151,
      "lat": 36.982186
    },
    {
      "name": "孝义",
      "full_name": "孝义市",
      "pinyin": "xiao yi",
      "pinyin_prefix": "x",
      "code": "141181",
      "deep": 2,
      "lng": 111.778818,
      "lat": 37.146294
    },
    {
      "name": "汾阳",
      "full_name": "汾阳市",
      "pinyin": "fen yang",
      "pinyin_prefix": "f",
      "code": "141182",
      "deep": 2,
      "lng": 111.770477,
      "lat": 37.261756
    },
    {
      "name": "内蒙古",
      "full_name": "内蒙古自治区",
      "pinyin": "nei meng gu",
      "pinyin_prefix": "n",
      "code": "150000",
      "deep": 0,
      "lng": 111.76629,
      "lat": 40.81739
    },
    {
      "name": "呼和浩特",
      "full_name": "呼和浩特市",
      "pinyin": "hu he hao te",
      "pinyin_prefix": "h",
      "code": "150100",
      "deep": 1,
      "lng": 111.749995,
      "lat": 40.842356,
      "aliases": [
        "hohhot"
      ]
    },
    {
      "name": "新城",
      "full_name": "新城区",
      "pinyin": "xin cheng",
      "pinyin_prefix": "x",
      "code": "150102",
      "deep": 2,
      "lng": 111.665544,
      "lat": 40.858289
    },
    {
      "name": "回民",
      "full_name": "回民区",
      "pinyin": "hui min",
      "pinyin_prefix": "h",
      "code": "150103",
      "deep": 2,
      "lng": 111.623692,
      "lat": 40.808608
    },
    {
      "name": "玉泉",
      "full_name": "玉泉区",
      "pinyin": "yu quan",
      "pinyin_prefix": "y",
      "code": "150104",
      "deep": 2,
      "lng": 111.673881,
      "lat": 40.753655
    },
    {
      "name": "赛罕",
      "full_name": "赛罕区",
      "pinyin": "sai han",
      "pinyin_prefix": "s",
      "code": "150105",
      "deep": 2,
      "lng": 111.701355,
      "lat": 40.792667
    },
    {
      "name": "土默特左旗",
      "full_name": "土默特左旗",
      "pinyin": "tu mo te zuo qi",
      "pinyin_prefix": "t",
      "code": "150121",
      "deep": 2,
      "lng": 111.163902,
      "lat": 40.729572
    },
    {
      "name": "托克托",
      "full_name": "托克托县",
      "pinyin": "tuo ke tuo",
      "pinyin_prefix": "t",
      "code": "150122",
      "deep": 2,
      "lng": 111.194312,
      "lat": 40.277431
    },
    {
      "name": "和林格尔",
      "full_name": "和林格尔县",
      "pinyin": "he lin ge er",
      "pinyin_prefix": "h",
      "code": "150123",
      "deep": 2,
      "lng": 111.821843,
      "lat": 40.378787
    },
    {
      "name": "清水河",
      "full_name": "清水河县",
      "pinyin": "qing shui he",
      "pinyin_prefix": "q",
      "code": "150124",
      "deep": 2,
      "lng": 111.647609,
      "lat": 39.921095
    },
    {
      "name": "武川",
      "full_name": "武川县",
      "pinyin": "wu chuan",
      "pinyin_prefix": "w",
      "code": "150125",
      "deep": 2,
      "lng": 111.451303,
      "lat": 41.096471
    },
    {
      "name": "包头",
      "full_name": "包头市",
      "pinyin": "bao tou",
      "pinyin_prefix": "b",
      "code": "150200",
      "deep": 1,
      "lng": 109.953504,
      "lat": 40.621157
    },
    {
      "name": "东河",
      "full_name": "东河区",
      "pinyin": "dong he",
      "pinyin_prefix": "d",
      "code": "150202",
      "deep": 2,
      "lng": 110.044106,
      "lat": 40.576319
    },
    {
      "name": "昆都仑",
      "full_name": "昆都仑区",
      "pinyin": "kun du lun",
      "pinyin_prefix": "k",
      "code": "150203",
      "deep": 2,
      "lng": 109.837707,
      "lat": 40.642578
    },
    {
      "name": "青山",
      "full_name": "青山区",
      "pinyin": "qing shan",
      "pinyin_prefix": "q",
      "code": "150204",
      "deep": 2,
      "lng": 109.901572,
      "lat": 40.643246
    },
    {
      "name": "石拐",
      "full_name": "石拐区",
      "pinyin": "shi guai",
      "pinyin_prefix": "s",
      "code": "150205",
      "deep": 2,
      "lng": 110.060254,
      "lat": 40.681748
    },
    {
      "name": "白云鄂博矿区",
      "full_name": "白云鄂博矿区",
      "pinyin": "bai yun e bo kuang qu",
      "pinyin_prefix": "b",
      "code": "150206",
      "deep": 2,
      "lng": 109.973803,
      "lat": 41.769511
    },
    {
      "name": "九原",
      "full_name": "九原区",
      "pinyin": "jiu yuan",
      "pinyin_prefix": "j",
      "code": "150207",
      "deep": 2,
      "lng": 109.967449,
      "lat": 40.610561
    },
    {
      "name": "土默特右旗",
      "full_name": "土默特右旗",
      "pinyin": "tu mo te you qi",
      "pinyin_prefix": "t",
      "code": "150221",
      "deep": 2,
      "lng": 110.524262,
      "lat": 40.569426
    },
    {
      "name": "固阳",
      "full_name": "固阳县",
      "pinyin": "gu yang",
      "pinyin_prefix": "g",
      "code": "150222",
      "deep": 2,
      "lng": 110.060514,
      "lat": 41.034105
    },
    {
      "name": "达尔罕茂明安联合旗",
      "full_name": "达尔罕茂明安联合旗",
      "pinyin": "da er han mao ming an lian he qi",
      "pinyin_prefix": "d",
      "code": "150223",
      "deep": 2,
      "lng": 110.432626,
      "lat": 41.698992
    },
    {
      "name": "乌海",
      "full_name": "乌海市",
      "pinyin": "wu hai",
      "pinyin_prefix": "w",
      "code": "150300",
      "deep": 1,
      "lng": 106.794216,
      "lat": 39.655248
    },
    {
      "name": "海勃湾",
      "full_name": "海勃湾区",
      "pinyin": "hai bo wan",
      "pinyin_prefix": "h",
      "code": "150302",
      "deep": 2,
      "lng": 106.822778,
      "lat": 39.691156
    },
    {
      "name": "海南",
      "full_name": "海南区",
      "pinyin": "hai nan",
      "pinyin_prefix": "h",
      "code": "150303",
      "deep": 2,
      "lng": 106.891424,
      "lat": 39.441364
    },
    {
      "name": "乌达",
      "full_name": "乌达区",
      "pinyin": "wu da",
      "pinyin_prefix": "w",
      "code": "150304",
      "deep": 2,
      "lng": 106.726099,
      "lat": 39.505925
    },
    {
      "name": "赤峰",
      "full_name": "赤峰市",
      "pinyin": "chi feng",
      "pinyin_prefix": "c",
      "code": "150400",
      "deep": 1,
      "lng": 118.88694,
      "lat": 42.257843
    },
    {
      "name": "红山",
      "full_name": "红山区",
      "pinyin": "hong shan",
      "pinyin_prefix": "h",
      "code": "150402",
      "deep": 2,
      "lng": 118.953854,
      "lat": 42.296588
    },
    {
      "name": "元宝山",
      "full_name": "元宝山区",
      "pinyin": "yuan bao shan",
      "pinyin_prefix": "y",
      "code": "150403",
      "deep": 2,
      "lng": 119.288611,
      "lat": 42.038902
    },
    {
      "name": "松山",
      "full_name": "松山区",
      "pinyin": "song shan",
      "pinyin_prefix": "s",
      "code": "150404",
      "deep": 2,
      "lng": 118.916208,
      "lat": 42.299798
    },
    {
      "name": "阿鲁科尔沁旗",
      "full_name": "阿鲁科尔沁旗",
      "pinyin": "a lu ke er qin qi",
      "pinyin_prefix": "a",
      "code": "150421",
      "deep": 2,
      "lng": 120.0657,
      "lat": 43.872298
    },
    {
      "name": "巴林左旗",
      "full_name": "巴林左旗",
      "pinyin": "ba lin zuo qi",
      "pinyin_prefix": "b",
      "code": "150422",
      "deep": 2,
      "lng": 119.362931,
      "lat": 43.960889
    },
    {
      "name": "巴林右旗",
      "full_name": "巴林右旗",
      "pinyin": "ba lin you qi",
      "pinyin_prefix": "b",
      "code": "150423",
      "deep": 2,
      "lng": 118.66518,
      "lat": 43.534414
    },
    {
      "name": "林西",
      "full_name": "林西县",
      "pinyin": "lin xi",
      "pinyin_prefix": "l",
      "code": "150424",
      "deep": 2,
      "lng": 118.05545,
      "lat": 43.61812
    },
    {
      "name": "克什克腾旗",
      "full_name": "克什克腾旗",
      "pinyin": "ke shi ke teng qi",
      "pinyin_prefix": "k",
      "code": "150425",
      "deep": 2,
      "lng": 117.545797,
      "lat": 43.264988
    },
    {
      "name": "翁牛特旗",
      "full_name": "翁牛特旗",
      "pinyin": "weng niu te qi",
      "pinyin_prefix": "w",
      "code": "150426",
      "deep": 2,
      "lng": 119.00658,
      "lat": 42.936188
    },
    {
      "name": "喀喇沁旗",
      "full_name": "喀喇沁旗",
      "pinyin": "ka la qin qi",
      "pinyin_prefix": "k",
      "code": "150428",
      "deep": 2,
      "lng": 118.701937,
      "lat": 41.927363
    },
    {
      "name": "宁城",
      "full_name": "宁城县",
      "pinyin": "ning cheng",
      "pinyin_prefix": "n",
      "code": "150429",
      "deep": 2,
      "lng": 119.318876,
      "lat": 41.601375
    },
    {
      "name": "敖汉旗",
      "full_name": "敖汉旗",
      "pinyin": "ao han qi",
      "pinyin_prefix": "a",
      "code": "150430",
      "deep": 2,
      "lng": 119.921603,
      "lat": 42.290781
    },
    {
      "name": "通辽",
      "full_name": "通辽市",
      "pinyin": "tong liao",
      "pinyin_prefix": "t",
      "code": "150500",
      "deep": 1,
      "lng": 122.243444,
      "lat": 43.652889
    },
    {
      "name": "科尔沁",
      "full_name": "科尔沁区",
      "pinyin": "ke er qin",
      "pinyin_prefix": "k",
      "code": "150502",
      "deep": 2,
      "lng": 122.255671,
      "lat": 43.623078
    },
    {
      "name": "科尔沁左翼中旗",
      "full_name": "科尔沁左翼中旗",
      "pinyin": "ke er qin zuo yi zhong qi",
      "pinyin_prefix": "k",
      "code": "150521",
      "deep": 2,
      "lng": 123.312264,
      "lat": 44.126625
    },
    {
      "name": "科尔沁左翼后旗",
      "full_name": "科尔沁左翼后旗",
      "pinyin": "ke er qin zuo yi hou qi",
      "pinyin_prefix": "k",
      "code": "150522",
      "deep": 2,
      "lng": 122.35677,
      "lat": 42.935105
    },
    {
      "name": "开鲁",
      "full_name": "开鲁县",
      "pinyin": "kai lu",
      "pinyin_prefix": "k",
      "code": "150523",
      "deep": 2,
      "lng": 121.319308,
      "lat": 43.601244
    },
    {
      "name": "库伦旗",
      "full_name": "库伦旗",
      "pinyin": "ku lun qi",
      "pinyin_prefix": "k",
      "code": "150524",
      "deep": 2,
      "lng": 121.8107,
      "lat": 42.735656
    },
    {
      "name": "奈曼旗",
      "full_name": "奈曼旗",
      "pinyin": "nai man qi",
      "pinyin_prefix": "n",
      "code": "150525",
      "deep": 2,
      "lng": 120.658282,
      "lat": 42.867226
    },
    {
      "name": "扎鲁特旗",
      "full_name": "扎鲁特旗",
      "pinyin": "zha lu te qi",
      "pinyin_prefix": "z",
      "code": "150526",
      "deep": 2,
      "lng": 120.911676,
      "lat": 44.556389
    },
    {
      "name": "霍林郭勒",
      "full_name": "霍林郭勒市",
      "pinyin": "huo lin guo le",
      "pinyin_prefix": "h",
      "code": "150581",
      "deep": 2,
      "lng": 119.68187,
      "lat": 45.533962
    },
    {
      "name": "鄂尔多斯",
      "full_name": "鄂尔多斯市",
      "pinyin": "e er duo si",
      "pinyin_prefix": "e",
      "code": "150600",
      "deep": 1,
      "lng": 109.781327,
      "lat": 39.608266
    },
    {
      "name": "东胜",
      "full_name": "东胜区",
      "pinyin": "dong sheng",
      "pinyin_prefix": "d",
      "code": "150602",
      "deep": 2,
      "lng": 109.963333,
      "lat": 39.822593
    },
    {
      "name": "康巴什",
      "full_name": "康巴什区",
      "pinyin": "kang ba shi",
      "pinyin_prefix": "k",
      "code": "150603",
      "deep": 2,
      "lng": 109.790076,
      "lat": 39.607472
    },
    {
      "name": "达拉特旗",
      "full_name": "达拉特旗",
      "pinyin": "da la te qi",
      "pinyin_prefix": "d",
      "code": "150621",
      "deep": 2,
      "lng": 110.033833,
      "lat": 40.412438
    },
    {
      "name": "准格尔旗",
      "full_name": "准格尔旗",
      "pinyin": "zhun ge er qi",
      "pinyin_prefix": "z",
      "code": "150622",
      "deep": 2,
      "lng": 111.240171,
      "lat": 39.864361
    },
    {
      "name": "鄂托克前旗",
      "full_name": "鄂托克前旗",
      "pinyin": "e tuo ke qian qi",
      "pinyin_prefix": "e",
      "code": "150623",
      "deep": 2,
      "lng": 107.477514,
      "lat": 38.182362
    },
    {
      "name": "鄂托克旗",
      "full_name": "鄂托克旗",
      "pinyin": "e tuo ke qi",
      "pinyin_prefix": "e",
      "code": "150624",
      "deep": 2,
      "lng": 107.97616,
      "lat": 39.08965
    },
    {
      "name": "杭锦旗",
      "full_name": "杭锦旗",
      "pinyin": "hang jin qi",
      "pinyin_prefix": "h",
      "code": "150625",
      "deep": 2,
      "lng": 108.736208,
      "lat": 39.833309
    },
    {
      "name": "乌审旗",
      "full_name": "乌审旗",
      "pinyin": "wu shen qi",
      "pinyin_prefix": "w",
      "code": "150626",
      "deep": 2,
      "lng": 108.817607,
      "lat": 38.604136
    },
    {
      "name": "伊金霍洛旗",
      "full_name": "伊金霍洛旗",
      "pinyin": "yi jin huo luo qi",
      "pinyin_prefix": "y",
      "code": "150627",
      "deep": 2,
      "lng": 109.74774,
      "lat": 39.564659
    },
    {
      "name": "呼伦贝尔",
      "full_name": "呼伦贝尔市",
      "pinyin": "hu lun bei er",
      "pinyin_prefix": "h",
      "code": "150700",
      "deep": 1,
      "lng": 119.765558,
      "lat": 49.211576
    },
    {
      "name": "海拉尔",
      "full_name": "海拉尔区",
      "pinyin": "hai la er",
      "pinyin_prefix": "h",
      "code": "150702",
      "deep": 2,
      "lng": 119.736176,
      "lat": 49.212188
    },
    {
      "name": "扎赉诺尔区",
      "full_name": "扎赉诺尔区",
      "pinyin": "zha lai nuo er qu",
      "pinyin_prefix": "z",
      "code": "150703",
      "deep": 2,
      "lng": 117.670248,
      "lat": 49.510375
    },
    {
      "name": "阿荣旗",
      "full_name": "阿荣旗",
      "pinyin": "a rong qi",
      "pinyin_prefix": "a",
      "code": "150721",
      "deep": 2,
      "lng": 123.459049,
      "lat": 48.126584
    },
    {
      "name": "莫力达瓦",
      "full_name": "莫力达瓦达斡尔族自治旗",
      "pinyin": "mo li da wa",
      "pinyin_prefix": "m",
      "code": "150722",
      "deep": 2,
      "lng": 124.519023,
      "lat": 48.477728
    },
    {
      "name": "鄂伦春自治旗",
      "full_name": "鄂伦春自治旗",
      "pinyin": "e lun chun zi zhi qi",
      "pinyin_prefix": "e",
      "code": "150723",
      "deep": 2,
      "lng": 123.726201,
      "lat": 50.591842
    },
    {
      "name": "鄂温克族自治旗",
      "full_name": "鄂温克族自治旗",
      "pinyin": "e wen ke zu zi zhi qi",
      "pinyin_prefix": "e",
      "code": "150724",
      "deep": 2,
      "lng": 119.755239,
      "lat": 49.146592
    },
    {
      "name": "陈巴尔虎旗",
      "full_name": "陈巴尔虎旗",
      "pinyin": "chen ba er hu qi",
      "pinyin_prefix": "c",
      "code": "150725",
      "deep": 2,
      "lng": 119.424026,
      "lat": 49.328916
    },
    {
      "name": "新巴尔虎左旗",
      "full_name": "新巴尔虎左旗",
      "pinyin": "xin ba er hu zuo qi",
      "pinyin_prefix": "x",
      "code": "150726",
      "deep": 2,
      "lng": 118.269819,
      "lat": 48.218241
    },
    {
      "name": "新巴尔虎右旗",
      "full_name": "新巴尔虎右旗",
      "pinyin": "xin ba er hu you qi",
      "pinyin_prefix": "x",
      "code": "150727",
      "deep": 2,
      "lng": 116.82369,
      "lat": 48.672101
    },
    {
      "name": "满洲里",
      "full_name": "满洲里市",
      "pinyin": "man zhou li",
      "pinyin_prefix": "m",
      "code": "150781",
      "deep": 2,
      "lng": 117.378529,
      "lat": 49.597841
    },
    {
      "name": "牙克石",
      "full_name": "牙克石市",
      "pinyin": "ya ke shi",
      "pinyin_prefix": "y",
      "code": "150782",
      "deep": 2,
      "lng": 120.711775,
      "lat": 49.285629
    },
    {
      "name": "扎兰屯",
      "full_name": "扎兰屯市",
      "pinyin": "zha lan tun",
      "pinyin_prefix": "z",
      "code": "150783",
      "deep": 2,
      "lng": 122.737467,
      "lat": 48.013733
    },
    {
      "name": "额尔古纳",
      "full_name": "额尔古纳市",
      "pinyin": "e er gu na",
      "pinyin_prefix": "e",
      "code": "150784",
      "deep": 2,
      "lng": 120.180506,
      "lat": 50.243102
    },
    {
      "name": "根河",
      "full_name": "根河市",
      "pinyin": "gen he",
      "pinyin_prefix": "g",
      "code": "150785",
      "deep": 2,
      "lng": 121.520388,
      "lat": 50.780344
    },
    {
      "name": "巴彦淖尔",
      "full_name": "巴彦淖尔市",
      "pinyin": "ba yan nao er",
      "pinyin_prefix": "b",
      "code": "150800",
      "deep": 1,
      "lng": 107.387657,
      "lat": 40.743213
    },
    {
      "name": "临河",
      "full_name": "临河区",
      "pinyin": "lin he",
      "pinyin_prefix": "l",
      "code": "150802",
      "deep": 2,
      "lng": 107.363918,
      "lat": 40.751187
    },
    {
      "name": "五原",
      "full_name": "五原县",
      "pinyin": "wu yuan",
      "pinyin_prefix": "w",
      "code": "150821",
      "deep": 2,
      "lng": 108.267561,
      "lat": 41.088421
    },
    {
      "name": "磴口",
      "full_name": "磴口县",
      "pinyin": "deng kou",
      "pinyin_prefix": "d",
      "code": "150822",
      "deep": 2,
      "lng": 107.008248,
      "lat": 40.330523
    },
    {
      "name": "乌拉特前旗",
      "full_name": "乌拉特前旗",
      "pinyin": "wu la te qian qi",
      "pinyin_prefix": "w",
      "code": "150823",
      "deep": 2,
      "lng": 108.652114,
      "lat": 40.737018
    },
    {
      "name": "乌拉特中旗",
      "full_name": "乌拉特中旗",
      "pinyin": "wu la te zhong qi",
      "pinyin_prefix": "w",
      "code": "150824",
      "deep": 2,
      "lng": 108.513645,
      "lat": 41.587732
    },
    {
      "name": "乌拉特后旗",
      "full_name": "乌拉特后旗",
      "pinyin": "wu la te hou qi",
      "pinyin_prefix": "w",
      "code": "150825",
      "deep": 2,
      "lng": 107.074621,
      "lat": 41.084282
    },
    {
      "name": "杭锦后旗",
      "full_name": "杭锦后旗",
      "pinyin": "hang jin hou qi",
      "pinyin_prefix": "h",
      "code": "150826",
      "deep": 2,
      "lng": 107.151245,
      "lat": 40.88602
    },
    {
      "name": "乌兰察布",
      "full_name": "乌兰察布市",
      "pinyin": "wu lan cha bu",
      "pinyin_prefix": "w",
      "code": "150900",
      "deep": 1,
      "lng": 113.132584,
      "lat": 40.994785
    },
    {
      "name": "集宁",
      "full_name": "集宁区",
      "pinyin": "ji ning",
      "pinyin_prefix": "j",
      "code": "150902",
      "deep": 2,
      "lng": 113.116453,
      "lat": 41.034134
    },
    {
      "name": "卓资",
      "full_name": "卓资县",
      "pinyin": "zhuo zi",
      "pinyin_prefix": "z",
      "code": "150921",
      "deep": 2,
      "lng": 112.577528,
      "lat": 40.894691
    },
    {
      "name": "化德",
      "full_name": "化德县",
      "pinyin": "hua de",
      "pinyin_prefix": "h",
      "code": "150922",
      "deep": 2,
      "lng": 114.010437,
      "lat": 41.90456
    },
    {
      "name": "商都",
      "full_name": "商都县",
      "pinyin": "shang du",
      "pinyin_prefix": "s",
      "code": "150923",
      "deep": 2,
      "lng": 113.577816,
      "lat": 41.562113
    },
    {
      "name": "兴和",
      "full_name": "兴和县",
      "pinyin": "xing he",
      "pinyin_prefix": "x",
      "code": "150924",
      "deep": 2,
      "lng": 113.834173,
      "lat": 40.872301
    },
    {
      "name": "凉城",
      "full_name": "凉城县",
      "pinyin": "liang cheng",
      "pinyin_prefix": "l",
      "code": "150925",
      "deep": 2,
      "lng": 112.503971,
      "lat": 40.531555
    },
    {
      "name": "察哈尔右翼前旗",
      "full_name": "察哈尔右翼前旗",
      "pinyin": "cha ha er you yi qian qi",
      "pinyin_prefix": "c",
      "code": "150926",
      "deep": 2,
      "lng": 113.214733,
      "lat": 40.785631
    },
    {
      "name": "察哈尔右翼中旗",
      "full_name": "察哈尔右翼中旗",
      "pinyin": "cha ha er you yi zhong qi",
      "pinyin_prefix": "c",
      "code": "150927",
      "deep": 2,
      "lng": 112.635577,
      "lat": 41.277462
    },
    {
      "name": "察哈尔右翼后旗",
      "full_name": "察哈尔右翼后旗",
      "pinyin": "cha ha er you yi hou qi",
      "pinyin_prefix": "c",
      "code": "150928",
      "deep": 2,
      "lng": 113.191035,
      "lat": 41.436069
    },
    {
      "name": "四子王旗",
      "full_name": "四子王旗",
      "pinyin": "si zi wang qi",
      "pinyin_prefix": "s",
      "code": "150929",
      "deep": 2,
      "lng": 111.706617,
      "lat": 41.533462
    },
    {
      "name": "丰镇",
      "full_name": "丰镇市",
      "pinyin": "feng zhen",
      "pinyin_prefix": "f",
      "code": "150981",
      "deep": 2,
      "lng": 113.109892,
      "lat": 40.436983
    },
    {
      "name": "兴安",
      "full_name": "兴安盟",
      "pinyin": "xing an",
      "pinyin_prefix": "x",
      "code": "152200",
      "deep": 1,
      "lng": 122.037657,
      "lat": 46.082462
    },
    {
      "name": "乌兰浩特",
      "full_name": "乌兰浩特市",
      "pinyin": "wu lan hao te",
      "pinyin_prefix": "w",
      "code": "152201",
      "deep": 2,
      "lng": 122.093123,
      "lat": 46.072731
    },
    {
      "name": "阿尔山",
      "full_name": "阿尔山市",
      "pinyin": "a er shan",
      "pinyin_prefix": "a",
      "code": "152202",
      "deep": 2,
      "lng": 119.943575,
      "lat": 47.17744
    },
    {
      "name": "科尔沁右翼前旗",
      "full_name": "科尔沁右翼前旗",
      "pinyin": "ke er qin you yi qian qi",
      "pinyin_prefix": "k",
      "code": "152221",
      "deep": 2,
      "lng": 121.952621,
      "lat": 46.079833
    },
    {
      "name": "科尔沁右翼中旗",
      "full_name": "科尔沁右翼中旗",
      "pinyin": "ke er qin you yi zhong qi",
      "pinyin_prefix": "k",
      "code": "152222",
      "deep": 2,
      "lng": 121.47653,
      "lat": 45.060837
    },
    {
      "name": "扎赉特旗",
      "full_name": "扎赉特旗",
      "pinyin": "zha lai te qi",
      "pinyin_prefix": "z",
      "code": "152223",
      "deep": 2,
      "lng": 122.899656,
      "lat": 46.723237
    },
    {
      "name": "突泉",
      "full_name": "突泉县",
      "pinyin": "tu quan",
      "pinyin_prefix": "t",
      "code": "152224",
      "deep": 2,
      "lng": 121.593799,
      "lat": 45.38193
    },
    {
      "name": "锡林郭勒",
      "full_name": "锡林郭勒盟",
      "pinyin": "xi lin guo le",
      "pinyin_prefix": "x",
      "code": "152500",
      "deep": 1,
      "lng": 116.048222,
      "lat": 43.933454
    },
    {
      "name": "二连浩特",
      "full_name": "二连浩特市",
      "pinyin": "er lian hao te",
      "pinyin_prefix": "e",
      "code": "152501",
      "deep": 2,
      "lng": 111.951002,
      "lat": 43.6437
    },
    {
      "name": "锡林浩特",
      "full_name": "锡林浩特市",
      "pinyin": "xi lin hao te",
      "pinyin_prefix": "x",
      "code": "152502",
      "deep": 2,
      "lng": 116.086029,
      "lat": 43.933403
    },
    {
      "name": "阿巴嘎旗",
      "full_name": "阿巴嘎旗",
      "pinyin": "a ba ga qi",
      "pinyin_prefix": "a",
      "code": "152522",
      "deep": 2,
      "lng": 114.950248,
      "lat": 44.022995
    },
    {
      "name": "苏尼特左旗",
      "full_name": "苏尼特左旗",
      "pinyin": "su ni te zuo qi",
      "pinyin_prefix": "s",
      "code": "152523",
      "deep": 2,
      "lng": 113.667248,
      "lat": 43.85988
    },
    {
      "name": "苏尼特右旗",
      "full_name": "苏尼特右旗",
      "pinyin": "su ni te you qi",
      "pinyin_prefix": "s",
      "code": "152524",
      "deep": 2,
      "lng": 112.641783,
      "lat": 42.742892
    },
    {
      "name": "东乌珠穆沁旗",
      "full_name": "东乌珠穆沁旗",
      "pinyin": "dong wu zhu mu qin qi",
      "pinyin_prefix": "d",
      "code": "152525",
      "deep": 2,
      "lng": 116.974494,
      "lat": 45.498221
    },
    {
      "name": "西乌珠穆沁旗",
      "full_name": "西乌珠穆沁旗",
      "pinyin": "xi wu zhu mu qin qi",
      "pinyin_prefix": "x",
      "code": "152526",
      "deep": 2,
      "lng": 117.608911,
      "lat": 44.587882
    },
    {
      "name": "太仆寺旗",
      "full_name": "太仆寺旗",
      "pinyin": "tai pu si qi",
      "pinyin_prefix": "t",
      "code": "152527",
      "deep": 2,
      "lng": 115.282986,
      "lat": 41.877135
    },
    {
      "name": "镶黄旗",
      "full_name": "镶黄旗",
      "pinyin": "xiang huang qi",
      "pinyin_prefix": "x",
      "code": "152528",
      "deep": 2,
      "lng": 113.847287,
      "lat": 42.232371
    },
    {
      "name": "正镶白旗",
      "full_name": "正镶白旗",
      "pinyin": "zheng xiang bai qi",
      "pinyin_prefix": "z",
      "code": "152529",
      "deep": 2,
      "lng": 115.029848,
      "lat": 42.28747
    },
    {
      "name": "正蓝旗",
      "full_name": "正蓝旗",
      "pinyin": "zheng lan qi",
      "pinyin_prefix": "z",
      "code": "152530",
      "deep": 2,
      "lng": 115.99247,
      "lat": 42.241638
    },
    {
      "name": "多伦",
      "full_name": "多伦县",
      "pinyin": "duo lun",
      "pinyin_prefix": "d",
      "code": "152531",
      "deep": 2,
      "lng": 116.485555,
      "lat": 42.203591
    },
    {
      "name": "阿拉善",
      "full_name": "阿拉善盟",
      "pinyin": "a la shan",
      "pinyin_prefix": "a",
      "code": "152900",
      "deep": 1,
      "lng": 105.728957,
      "lat": 38.851921
    },
    {
      "name": "阿拉善左旗",
      "full_name": "阿拉善左旗",
      "pinyin": "a la shan zuo qi",
      "pinyin_prefix": "a",
      "code": "152921",
      "deep": 2,
      "lng": 105.666275,
      "lat": 38.833389
    },
    {
      "name": "阿拉善右旗",
      "full_name": "阿拉善右旗",
      "pinyin": "a la shan you qi",
      "pinyin_prefix": "a",
      "code": "152922",
      "deep": 2,
      "lng": 101.666917,
      "lat": 39.216185
    },
    {
      "name": "额济纳旗",
      "full_name": "额济纳旗",
      "pinyin": "e ji na qi",
      "pinyin_prefix": "e",
      "code": "152923",
      "deep": 2,
      "lng": 101.055731,
      "lat": 41.95455
    },
    {
      "name": "辽宁",
      "full_name": "辽宁省",
      "pinyin": "liao ning",
      "pinyin_prefix": "l",
      "code": "210000",
      "deep": 0,
      "lng": 123.431382,
      "lat": 41.836175
    },
    {
      "name": "沈阳",
      "full_name": "沈阳市",
      "pinyin": "shen yang",
      "pinyin_prefix": "s",
      "code": "210100",
      "deep": 1,
      "lng": 123.465035,
      "lat": 41.677284,
      "aliases": [
        "shenyang"
      ]
    },
    {
      "name": "和平",
      "full_name": "和平区",
      "pinyin": "he ping",
      "pinyin_prefix": "h",
      "code": "210102",
      "deep": 2,
      "lng": 123.420368,
      "lat": 41.789833
    },
    {
      "name": "沈河",
      "full_name": "沈河区",
      "pinyin": "shen he",
      "pinyin_prefix": "s",
      "code": "210103",
      "deep": 2,
      "lng": 123.458691,
      "lat": 41.796177
    },
    {
      "name": "大东",
      "full_name": "大东区",
      "pinyin": "da dong",
      "pinyin_prefix": "d",
      "code": "210104",
      "deep": 2,
      "lng": 123.469948,
      "lat": 41.805137
    },
    {
      "name": "皇姑",
      "full_name": "皇姑区",
      "pinyin": "huang gu",
      "pinyin_prefix": "h",
      "code": "210105",
      "deep": 2,
      "lng": 123.442378,
      "lat": 41.824516
    },
    {
      "name": "铁西",
      "full_name": "铁西区",
      "pinyin": "tie xi",
      "pinyin_prefix": "t",
      "code": "210106",
      "deep": 2,
      "lng": 123.333968,
      "lat": 41.820807
    },
    {
      "name": "苏家屯",
      "full_name": "苏家屯区",
      "pinyin": "su jia tun",
      "pinyin_prefix": "s",
      "code": "210111",
      "deep": 2,
      "lng": 123.344062,
      "lat": 41.664757
    },
    {
      "name": "浑南",
      "full_name": "浑南区",
      "pinyin": "hun nan",
      "pinyin_prefix": "h",
      "code": "210112",
      "deep": 2,
      "lng": 123.449714,
      "lat": 41.714914
    },
    {
      "name": "沈北新区",
      "full_name": "沈北新区",
      "pinyin": "shen bei xin qu",
      "pinyin_prefix": "s",
      "code": "210113",
      "deep": 2,
      "lng": 123.583196,
      "lat": 41.912487
    },
    {
      "name": "于洪",
      "full_name": "于洪区",
      "pinyin": "yu hong",
      "pinyin_prefix": "y",
      "code": "210114",
      "deep": 2,
      "lng": 123.308119,
      "lat": 41.793721
    },
    {
      "name": "辽中",
      "full_name": "辽中区",
      "pinyin": "liao zhong",
      "pinyin_prefix": "l",
      "code": "210115",
      "deep": 2,
      "lng": 122.765409,
      "lat": 41.516826
    },
    {
      "name": "康平",
      "full_name": "康平县",
      "pinyin": "kang ping",
      "pinyin_prefix": "k",
      "code": "210123",
      "deep": 2,
      "lng": 123.343699,
      "lat": 42.72793
    },
    {
      "name": "法库",
      "full_name": "法库县",
      "pinyin": "fa ku",
      "pinyin_prefix": "f",
      "code": "210124",
      "deep": 2,
      "lng": 123.440294,
      "lat": 42.50108
    },
    {
      "name": "新民",
      "full_name": "新民市",
      "pinyin": "xin min",
      "pinyin_prefix": "x",
      "code": "210181",
      "deep": 2,
      "lng": 122.836723,
      "lat": 41.985186
    },
    {
      "name": "大连",
      "full_name": "大连市",
      "pinyin": "da lian",
      "pinyin_prefix": "d",
      "code": "210200",
      "deep": 1,
      "lng": 121.614848,
      "lat": 38.914086,
      "aliases": [
        "dalian"
      ]
    },
    {
      "name": "中山",
      "full_name": "中山区",
      "pinyin": "zhong shan",
      "pinyin_prefix": "z",
      "code": "210202",
      "deep": 2,
      "lng": 121.644926,
      "lat": 38.918574
    },
    {
      "name": "西岗",
      "full_name": "西岗区",
      "pinyin": "xi gang",
      "pinyin_prefix": "x",
      "code": "210203",
      "deep": 2,
      "lng": 121.612324,
      "lat": 38.914687
    },
    {
      "name": "沙河口",
      "full_name": "沙河口区",
      "pinyin": "sha he kou",
      "pinyin_prefix": "s",
      "code": "210204",
      "deep": 2,
      "lng": 121.594297,
      "lat": 38.904788
    },
    {
      "name": "甘井子",
      "full_name": "甘井子区",
      "pinyin": "gan jing zi",
      "pinyin_prefix": "g",
      "code": "210211",
      "deep": 2,
      "lng": 121.525466,
      "lat": 38.953343
    },